cityName,airportCode,countryCode,longitude,NoTraffic,airportName,countryName,Closed,latitude,departures,previous_week_dep_percent_change,reference_week_dep_percent_change,date
Fujairah,OMFJ,ARE,56.32416667,FALSE,Fujairah Intl,UAE,FALSE,25.11222222,1,,0,12/04/2020
Maputo,FQMA,MOZ,32.57263889,FALSE,Maputo,Mozambique,FALSE,-25.92083333,1,-66.66666667,-97.6744186,12/04/2020
Lucknow,VILK,IND,80.88333333,FALSE,Chaudhary Charan Singh,India,FALSE,26.76194444,1,0,-97.82608696,12/04/2020
Perth,YPPH,AUS,115.9669444,TRUE,Perth Intl,Australia,FALSE,-31.94027778,18,-33.33333333,-91.13300493,12/04/2020
Maldonado,SULS,URY,-55.09805556,FALSE,Capitan Curbelo Intl,Uruguay,FALSE,-34.85722222,2,,0,12/04/2020
Canouan,TVSC,VCT,-61.34506667,FALSE,Canouan,St Vincent,FALSE,12.70079722,2,,0,12/04/2020
Araxos,LGRX,GRC,21.42555556,FALSE,Araxos,Greece,FALSE,38.15111111,3,,0,12/04/2020
Nanning,ZGNN,CHN,108.1733333,FALSE,Wuxu,China,FALSE,22.61,1,0,-98.94736842,12/04/2020
Kavala,LGKV,GRC,24.61972222,TRUE,Megas Alexandros,Greece,FALSE,40.91388889,10,,0,12/04/2020
Lagos,DNMM,NGA,3.322527778,FALSE,Murtala Muhammed,Nigeria,FALSE,6.578644444,6,-25,-95.91836735,12/04/2020
Freeport,MYGF,BHS,-78.69555278,FALSE,Grand Bahama Intl,Bahamas,FALSE,26.55868611,7,75,-80,12/04/2020
Valencia,LEVC,ESP,-0.481666667,FALSE,Manises,Spain,FALSE,39.48944444,2,-71.42857143,-99.51807229,12/04/2020
Manchester,KMHT,USA,-71.43575,FALSE,Manchester,USA,FALSE,42.93280556,2,,0,12/04/2020
Harlingen,KHRL,USA,-97.65513889,FALSE,Valley Intl,USA,FALSE,26.22711111,5,0,-44.44444444,12/04/2020
Salvador,SBSV,BRA,-38.3225,TRUE,Dep. L. E. Magalhaes Intl,Brazil,FALSE,-12.90861111,25,,0,12/04/2020
Trondheim,ENVA,NOR,10.92416667,FALSE,Vaernes,Norway,FALSE,63.4575,1,0,-98.8372093,12/04/2020
Bucharest,LRBS,ROU,26.10361111,FALSE,Baneasa-Aurel Vlaicu,Romania,FALSE,44.50361111,1,,0,12/04/2020
Rijeka,LDRI,HRV,14.57026667,TRUE,Krk Island,Croatia,FALSE,45.21688889,13,,0,12/04/2020
Rennes,LFRN,FRA,-1.732222222,TRUE,St Jacques,France,FALSE,48.07194444,15,,0,12/04/2020
Philadelphia,KPHL,USA,-75.24086389,TRUE,Philadelphia Intl,USA,FALSE,39.87224722,32,-45.76271186,-91.46666667,12/04/2020
Lanzhou,ZLLL,CHN,103.6216667,FALSE,Zhongchuan,China,FALSE,36.51666667,6,,0,12/04/2020
Kuala Lumpur,WMKK,MYS,101.6980556,TRUE,Kuala Lumpur Intl - Sepang,Malaysia,FALSE,2.743333333,91,-27.2,-96.47832817,12/04/2020
Turku,EFTU,FIN,22.26166667,FALSE,Turku,Finland,FALSE,60.51472222,1,0,-97.5,12/04/2020
Iasi,LRIA,ROU,27.62083333,FALSE,Iasi,Romania,FALSE,47.18027778,2,-81.81818182,-94.73684211,12/04/2020
Chania,LGSA,GRC,24.15111111,TRUE,Ioannis Daskalogiannis,Greece,FALSE,35.53138889,107,,0,12/04/2020
Monterey,KMRY,USA,-121.8427806,FALSE,Monterey Regional,USA,FALSE,36.58695,1,,0,12/04/2020
London,EGSS,GBR,0.235,TRUE,Stansted,UK,FALSE,51.885,19,-53.65853659,-98.83435583,12/04/2020
Edmonton,CYEG,CAN,-113.5794944,TRUE,Edmonton Intl,Canada,FALSE,53.30988333,15,-31.81818182,-87.39495798,12/04/2020
Ostrava,LKMT,CZE,18.11083333,FALSE,Mosnov,Czech,FALSE,49.69611111,5,,0,12/04/2020
Norwich,EGSH,GBR,1.282777778,TRUE,Norwich,UK,FALSE,52.67583333,52,,0,12/04/2020
Jeju,RKPC,KOR,126.4927778,FALSE,Jeju Intl,Korea,FALSE,33.51222222,1,0,-99.45652174,12/04/2020
Madison,KMSN,USA,-89.33750278,FALSE,Dane Co Regl-Truax,USA,FALSE,43.13987778,2,,0,12/04/2020
Leon,MMLO,MEX,-101.4809639,TRUE,De Guanajuato Intl,Mexico,FALSE,20.99330556,13,-43.47826087,-83.95061728,12/04/2020
Gaya,VEGY,IND,84.9425,FALSE,Gaya,India,TRUE,24.74805556,7,,0,12/04/2020
Prestwick,EGPK,GBR,-4.594444444,FALSE,Prestwick,UK,FALSE,55.50944444,2,-33.33333333,-96.36363636,12/04/2020
Ibiza,LEIB,ESP,1.373055556,FALSE,Ibiza,Spain,FALSE,38.87277778,1,0,-99.70930233,12/04/2020
Kandahar,OAKN,AFG,65.84779722,TRUE,Kandahar,Afghanistan,FALSE,31.50587222,8,,0,12/04/2020
Magdeburg/City,EDBM,DEU,11.62646667,FALSE,Magdeburg/City,Germany,FALSE,52.07365833,1,,0,12/04/2020
Sochi,URSS,RUS,39.94694444,TRUE,Sochi,Russia,FALSE,43.44444444,26,,0,12/04/2020
Beauvais,LFOB,FRA,2.112777778,TRUE,Tille,France,FALSE,49.45444444,189,,0,12/04/2020
Naples,LIRN,ITA,14.29083333,FALSE,Capodichino,Italy,FALSE,40.88444444,1,0,-99.7979798,12/04/2020
Campinas,SBKP,BRA,-47.13444444,TRUE,Viracopos Intl,Brazil,FALSE,-23.00694444,21,-40,-65,12/04/2020
Santa Cruz,SLVR,BOL,-63.13777778,FALSE,Viru Viru Intl,Bolivia,FALSE,-17.64611111,1,0,-98.46153846,12/04/2020
Biggin Hill,EGKB,GBR,0.0325,FALSE,Biggin Hill,UK,FALSE,51.33083333,2,0,-50,12/04/2020
Paris,LFPO,FRA,2.379444444,TRUE,Orly,France,TRUE,48.72333333,11,0,-99.03930131,12/04/2020
Brest,LFRB,FRA,-4.421666667,TRUE,Bretagne,France,FALSE,48.44722222,17,,0,12/04/2020
Shannon,EINN,IRL,-8.924816667,FALSE,Shannon,Ireland,FALSE,52.70197778,4,-78.94736842,-97.18309859,12/04/2020
Conakry,GUCY,GIN,-13.61191667,FALSE,Gbessia,Guinea Rep,FALSE,9.576888889,1,0,-96.66666667,12/04/2020
Kemerovo,UNEE,RUS,86.1075,FALSE,Kemerovo,Russia,FALSE,55.27,5,,0,12/04/2020
Pontianak,WIOO,IDN,109.4041667,TRUE,Supadio,Indonesia,FALSE,-0.148055556,20,,0,12/04/2020
Belize City,MZBZ,BLZ,-88.30833333,FALSE,Philip S W Goldson Intl,Belize,FALSE,17.53916667,1,0,-98.14814815,12/04/2020
Ashgabat,UTAA,TKM,58.36194444,FALSE,Ashgabat,Turkmenistan,FALSE,37.99166667,3,200,-93.61702128,12/04/2020
Penang I,WMKP,MYS,100.2766667,TRUE,Penang Intl,Malaysia,FALSE,5.297222222,11,-21.42857143,-95.97069597,12/04/2020
Adana,LTAF,TUR,35.28027778,TRUE,Adana,Turkey,FALSE,36.98222222,44,,0,12/04/2020
Tel Aviv,LLBG,ISR,34.88555556,TRUE,Ben Gurion,Israel,FALSE,32.00944444,16,-38.46153846,-98.87482419,12/04/2020
Laredo,KLRD,USA,-99.46158333,FALSE,Laredo Intl,USA,FALSE,27.54419444,2,-33.33333333,-90,12/04/2020
Monterrey,MMAN,MEX,-100.2372111,FALSE,Del Norte Intl,Mexico,FALSE,25.86560556,1,-66.66666667,-98.03921569,12/04/2020
Cincinnati,KCVG,USA,-84.66782222,TRUE,Cincinnati/Northern Ky Intl,USA,FALSE,39.04883611,96,-11.9266055,-26.71755725,12/04/2020
Bucharest,LROP,ROU,26.085,TRUE,Henri Coanda,Romania,FALSE,44.57111111,11,-84.28571429,-98.75283447,12/04/2020
Ajaccio,LFKJ,FRA,8.8025,FALSE,Napoleon Bonaparte,France,FALSE,41.92388889,6,,0,12/04/2020
Warsaw,EPWA,POL,20.96722222,FALSE,Chopin,Poland,FALSE,52.16583333,3,-95.23809524,-99.76940815,12/04/2020
Palanga,EYPA,LTU,21.09388889,TRUE,Palanga Intl,Lithuania,TRUE,55.97333333,35,,0,12/04/2020
Scarborough,TTCP,XJT,-60.83222222,FALSE,Robinson Intl,Tobago Is,FALSE,11.14972222,6,-14.28571429,-94.49541284,12/04/2020
Bristol,EGGD,GBR,-2.7191,FALSE,Bristol,UK,FALSE,51.38266944,1,0,-99.79209979,12/04/2020
Mendoza,SAME,ARG,-68.79277778,TRUE,El Plumerillo,Argentina,FALSE,-32.83166667,27,,0,12/04/2020
Sao Paulo,SBGR,BRA,-46.47305556,TRUE,Guarulhos-Gov. Andre Franco Montoro Intl.,Brazil,FALSE,-23.43555556,31,-55.71428571,-94.68267581,12/04/2020
Hermosillo,MMHO,MEX,-111.0478528,FALSE,Gen Ignacio Pesqueira Garcia,Mexico,FALSE,29.09581667,7,-58.82352941,-69.56521739,12/04/2020
Santorini,LGSR,GRC,25.47916667,TRUE,Santorini,Greece,FALSE,36.39916667,51,,0,12/04/2020
Loreto,MMLT,MEX,-111.3469667,FALSE,Loreto Intl,Mexico,FALSE,25.98987778,2,-60,-60,12/04/2020
Tartu,EETU,EST,26.68694444,FALSE,Tartu,Estonia,FALSE,58.3075,3,,0,12/04/2020
Nantes/Atlantique,LFRS,FRA,-1.607777778,FALSE,Nantes/Atlantique,France,FALSE,47.15694444,1,-50,-99.65517241,12/04/2020
Singapore,WSSL,SGP,103.8676444,FALSE,Seletar,Singapore,FALSE,1.416955556,1,0,-97.82608696,12/04/2020
Jakarta,WIHH,IDN,106.8863889,FALSE,Halim Intl,Indonesia,FALSE,-6.2675,1,0,-80,12/04/2020
Mineralnyye Vody,URMM,RUS,43.08302778,TRUE,Mineralnyye Vody,Russia,FALSE,44.22680556,31,,0,12/04/2020
Norfolk I,YSNF,AUS,167.9380556,FALSE,Norfolk Island,Australia,FALSE,-29.0425,1,,0,12/04/2020
Rome,LIRF,ITA,12.23888889,TRUE,Fiumicino,Italy,FALSE,41.80027778,73,-31.13207547,-96.45631068,12/04/2020
Tanger,GMTT,MAR,-5.921111111,TRUE,Ibn Batouta Intl,Morocco,FALSE,35.73166667,87,,0,12/04/2020
Medford,KMFR,USA,-122.8734972,FALSE,Rogue Valley Intl-Medford,USA,FALSE,42.37422778,1,,0,12/04/2020
Larnaca,LCLK,CYP,33.63027778,FALSE,Larnaca Intl,Cyprus,FALSE,34.87888889,2,0,-99.60552268,12/04/2020
Porto Alegre,SBPA,BRA,-51.17111111,TRUE,Salgado Filho Intl,Brazil,FALSE,-29.99388889,34,,0,12/04/2020
Kuwait,OKBK,KWT,47.97995278,FALSE,Kuwait Intl,Kuwait,FALSE,29.22676667,4,-55.55555556,-99.58592133,12/04/2020
Pafos,LCPH,CYP,32.485,TRUE,Pafos Intl,Cyprus,FALSE,34.71833333,187,,0,12/04/2020
Shiraz,OISS,IRN,52.58861111,TRUE,Shahid Dastghaib Intl,Iran,FALSE,29.54027778,26,,0,12/04/2020
Yekaterinburg,USSS,RUS,60.80305556,TRUE,Koltsovo,Russia,FALSE,56.74305556,74,,0,12/04/2020
Cannes,LFMD,FRA,6.954166667,FALSE,Mandelieu,France,FALSE,43.54638889,1,,0,12/04/2020
Vancouver,CYVR,CAN,-123.1839667,TRUE,Vancouver Intl,Canada,FALSE,49.19469444,92,-43.55828221,-90.19189765,12/04/2020
Dakar,GOOY,SEN,-17.47930556,FALSE,Leopold Sedar Senghor,Senegal,FALSE,14.74383333,1,,0,12/04/2020
Ciudad Obregon,MMCN,MEX,-109.8333833,FALSE,Ciudad Obregon Intl,Mexico,FALSE,27.39304444,5,,0,12/04/2020
Ocho Rios,MKBS,JAM,-76.96916667,FALSE,Ian Fleming Intl,Jamaica,FALSE,18.40416667,1,,0,12/04/2020
Dusseldorf,EDDL,DEU,6.757311111,TRUE,Dusseldorf,Germany,FALSE,51.280925,29,-53.96825397,-98.14814815,12/04/2020
Girona,LEGE,ESP,2.760555556,TRUE,Girona,Spain,FALSE,41.90083333,145,,0,12/04/2020
Asheville,KAVL,USA,-82.54272778,FALSE,Asheville Regl,USA,FALSE,35.43444444,1,,0,12/04/2020
Bahrain,OBBI,BHR,50.63361111,FALSE,Bahrain Intl,Bahrain,FALSE,26.27083333,4,-42.85714286,-99.4374121,12/04/2020
Arkhangelsk,ULAA,RUS,40.71666667,FALSE,Talagi,Russia,FALSE,64.60027778,2,,0,12/04/2020
Lome,DXXX,TGO,1.254166667,TRUE,Gnassingbe Eyadema,Togo,FALSE,6.165833333,8,60,-87.87878788,12/04/2020
Ciudad Juarez,MMCS,MEX,-106.4287611,FALSE,Abraham Gonzalez Intl,Mexico,FALSE,31.63635833,1,,0,12/04/2020
Exeter,EGTE,GBR,-3.413811111,TRUE,Exeter,UK,FALSE,50.73429167,23,,0,12/04/2020
Bujumbura,HBBA,BDI,29.31596389,FALSE,Bujumbura Intl,Burundi,FALSE,-3.307752778,5,,0,12/04/2020
Manzanillo,MMZO,MEX,-104.558475,FALSE,Playa De Oro Intl,Mexico,FALSE,19.14476389,1,-87.5,-50,12/04/2020
Providenciales I.,MBPV,XJL,-72.268675,FALSE,Providenciales Intl,Caicos Is,FALSE,21.77376389,6,-25,-95.71428571,12/04/2020
Entebbe,HUEN,UGA,32.44054167,FALSE,Entebbe Intl,Uganda,FALSE,0.040813889,3,50,-97.4137931,12/04/2020
Oakland,KOAK,USA,-122.2211472,FALSE,Metro Oakland Intl,USA,FALSE,37.72125833,7,-50,-87.71929825,12/04/2020
Berlin,EDDT,DEU,13.28771111,TRUE,Tegel,Germany,FALSE,52.55968611,14,-63.15789474,-98.79206212,12/04/2020
Bogota,SKBO,COL,-74.14695556,TRUE,Eldorado Intl,Colombia,FALSE,4.701602778,44,-37.14285714,-94.37340153,12/04/2020
Funafuti,NGFU,TUV,179.1957389,FALSE,Funafuti Intl,Tuvalu,FALSE,-8.525144444,3,,0,12/04/2020
Santiago De Cuba,MUCU,CUB,-75.83555556,TRUE,Antonio Maceo Intl,Cuba,FALSE,19.97,16,,0,12/04/2020
Saipan I,PGSN,XJO,145.7299833,TRUE,Francisco C Ada/Saipan Intl,Northern Mariana Is,FALSE,15.12025278,11,-31.25,-84.72222222,12/04/2020
Pau/Pyrenees,LFBP,FRA,-0.418611111,FALSE,Pau/Pyrenees,France,FALSE,43.38,3,,0,12/04/2020
Riyadh,OERK,SAU,46.70805556,TRUE,King Khaled Intl,Saudi Arabia,FALSE,24.96277778,14,-17.64705882,-97.92284866,12/04/2020
Miami,KMIA,USA,-80.29011111,TRUE,Miami Intl,USA,FALSE,25.79536111,320,-30.43478261,-81.04265403,12/04/2020
Barcelona,LEBL,ESP,2.078333333,TRUE,El Prat,Spain,FALSE,41.29694444,29,-57.97101449,-98.78406709,12/04/2020
Ahmedabad,VAAH,IND,72.62638889,FALSE,Ahmedabad,India,FALSE,23.07111111,3,0,-96.93877551,12/04/2020
Tozeur,DTTZ,TUN,8.110555556,FALSE,Nefta,Tunisia,FALSE,33.93972222,1,,0,12/04/2020
Kaohsiung,RCKH,TWN,120.3502778,FALSE,Kaohsiung Intl,Taiwan,FALSE,22.57694444,2,0,-99.40298507,12/04/2020
Gyumri,UDSG,ARM,43.859325,FALSE,Shirak,Armenia,FALSE,40.750475,7,,0,12/04/2020
Mumbai,VABB,IND,72.86611111,FALSE,Chhatrapati Shivaji Intl,India,FALSE,19.09166667,7,-61.11111111,-98.91808346,12/04/2020
Traverse City,KTVC,USA,-85.58177778,FALSE,Cherry Capital,USA,FALSE,44.74158333,1,,0,12/04/2020
Lilongwe,FWKI,MWI,33.7775,FALSE,Kamuzu Intl,Malawi,FALSE,-13.78333333,1,0,-96,12/04/2020
Kyiv,UKBB,UKR,30.89333333,FALSE,Boryspil',Ukraine,FALSE,50.34472222,3,50,-99.53846154,12/04/2020
Madrid,LEMD,ESP,-3.560833333,TRUE,Adolfo Suarez Madrid-Barajas,Spain,FALSE,40.47222222,48,-48.93617021,-98.33506764,12/04/2020
St Croix I,TISX,VIR,-64.80166667,TRUE,Henry E Rohlsen,Virgin Islands,FALSE,17.7015,44,-32.30769231,-59.63302752,12/04/2020
"Nauru I, Nauru",ANYN,NRU,166.9166667,FALSE,Nauru Intl,Nauru,FALSE,-0.546666667,2,0,-77.77777778,12/04/2020
Samsun,LTFH,TUR,36.54861111,FALSE,Carsamba,Turkey,FALSE,41.26555556,6,,0,12/04/2020
Alexandria,HEBA,EGY,29.69583333,TRUE,Borg El Arab Intl,Egypt,FALSE,30.91805556,100,,0,12/04/2020
Brussels,EBBR,BEL,4.484444444,TRUE,Brussels National,Belgium,FALSE,50.90138889,65,-40.90909091,-96.63735127,12/04/2020
Prague,LKPR,CZE,14.26,FALSE,Ruzyne,Czech,FALSE,50.10083333,7,-41.66666667,-99.41569282,12/04/2020
Dallas,KDAL,USA,-96.85177778,FALSE,Dallas Love,USA,FALSE,32.84711111,5,25,-75,12/04/2020
Salta,SASA,ARG,-65.48694444,FALSE,Gen. Don Martin Miguel de Guemes,Argentina,FALSE,-24.85972222,5,,0,12/04/2020
Asturias,LEAS,ESP,-6.034722222,TRUE,Asturias,Spain,FALSE,43.56361111,9,,0,12/04/2020
Malta,LMML,MLT,14.47743889,TRUE,Luqa,Malta,TRUE,35.85754167,11,-8.333333333,-97.83464567,12/04/2020
Dzaoudzi,FMCZ,MYT,45.28055556,TRUE,Pamandzi,Mayotte,FALSE,-12.80666667,12,,0,12/04/2020
Palermo,LICJ,ITA,13.09944444,TRUE,Punta Raisi,Italy,FALSE,38.18194444,114,,0,12/04/2020
Santo Domingo/El Higuero,MDJB,DOM,-69.98566944,FALSE,El Higuero Intl,Dom Rep,FALSE,18.572275,2,0,-90,12/04/2020
Damascus,OSDI,SYR,36.51333333,TRUE,Damascus Intl,Syria,FALSE,33.41083333,21,,0,12/04/2020
St Johns,TAPA,ATG,-61.79277778,FALSE,V C Bird Intl,Antigua,TRUE,17.13666667,2,-81.81818182,-98.47328244,12/04/2020
Reykjavik,BIRK,ISL,-21.94055556,FALSE,Reykjavik,Iceland,FALSE,64.13,2,0,-71.42857143,12/04/2020
Niamey,DRRN,NER,2.170361111,FALSE,Diori Hamani,Niger,FALSE,13.48166667,2,100,-95.83333333,12/04/2020
Ust-Kamenogorsk,UASK,KAZ,82.49416667,FALSE,Ust-Kamenogorsk,Kazakhstan,FALSE,50.03611111,7,,0,12/04/2020
New Bern,KEWN,USA,-77.04301944,FALSE,Coastal Carolina Regl,USA,FALSE,35.07285,2,,0,12/04/2020
Belgrade,LYBE,SCG,20.30706667,TRUE,Nikola Tesla,Serbia-Mont.,FALSE,44.81938333,443,,0,12/04/2020
La Romana,MDLR,DOM,-68.91138889,FALSE,Casa De Campo Intl,Dom Rep,FALSE,18.4525,2,0,-90,12/04/2020
Freetown,GFLL,SLE,-13.19558333,TRUE,Lungi,Sierra Leone,FALSE,8.616458333,22,,0,12/04/2020
Castries,TLPC,LCA,-60.99305556,FALSE,George F. Charles,St Lucia,FALSE,14.02,1,-75,-98.14814815,12/04/2020
Bequia,TVSB,VCT,-61.26444444,FALSE,J.F. Mitchell,St Vincent,FALSE,12.98694444,1,,0,12/04/2020
Krakow,EPKK,POL,19.78472222,TRUE,Balice,Poland,FALSE,50.07777778,504,,0,12/04/2020
Orlando,KSFB,USA,-81.23491667,FALSE,Orlando Sanford Intl,USA,FALSE,28.77697222,3,200,-81.25,12/04/2020
Katowice,EPKT,POL,19.08,TRUE,Pyrzowice,Poland,FALSE,50.47416667,129,,0,12/04/2020
Marrakech,GMMX,MAR,-8.040833333,FALSE,Menara Intl,Morocco,FALSE,31.60861111,2,0,-99.44289694,12/04/2020
Brasilia,SBBR,BRA,-47.91861111,TRUE,Pres Juscelino Kubitschek Intl,Brazil,FALSE,-15.87111111,40,,0,12/04/2020
Linkoping,ESSL,SWE,15.67972222,TRUE,Saab,Sweden,FALSE,58.40638889,29,,0,12/04/2020
St Petersburg,ULLI,RUS,30.2625,FALSE,Pulkovo,Russia,FALSE,59.80027778,2,0,-99.56709957,12/04/2020
Honiara,AGGH,SLB,160.0516667,FALSE,Honiara Intl /Henderson Field,Solomon Is,FALSE,-9.421666667,5,0,-70.58823529,12/04/2020
Ft Myers,KRSW,USA,-81.75516667,FALSE,Southwest Florida Intl,USA,FALSE,26.53616667,2,0,-83.33333333,12/04/2020
Ouarzazate,GMMZ,MAR,-6.906111111,FALSE,Ouarzazate Intl,Morocco,FALSE,30.93722222,7,,0,12/04/2020
La Paz,MMLP,MEX,-110.3625417,FALSE,Gen Manuel Marquez De Leon,Mexico,FALSE,24.07274444,2,100,-60,12/04/2020
Manaus,SBEG,BRA,-60.04611111,FALSE,Eduardo Gomes Intl,Brazil,FALSE,-3.038888889,5,0,-76.19047619,12/04/2020
Dover,KDOV,USA,-75.46596111,FALSE,Dover AFB,USA,FALSE,39.12953889,1,-66.66666667,-75,12/04/2020
San Pedro Sula,MHLM,HND,-87.92415278,TRUE,Ramon Villeda Morales Intl,Honduras,FALSE,15.45195833,21,-44.73684211,-84.55882353,12/04/2020
Kailua-Kona,PHKO,USA,-156.0456306,TRUE,Kona Intl At Keahole,USA,FALSE,19.73876389,13,,0,12/04/2020
Surgut,USRR,RUS,73.40222222,FALSE,Surgut,Russia,FALSE,61.34388889,7,,0,12/04/2020
Colorado Springs,KCOS,USA,-104.7007778,FALSE,City Of Colorado Springs Mun,USA,FALSE,38.80580556,1,,0,12/04/2020
Guatemala City,MGGT,GTM,-90.5275,TRUE,La Aurora Intl,Guatemala,TRUE,14.58333333,24,-40,-91.69550173,12/04/2020
Shreveport,KSHV,USA,-93.82561111,FALSE,Shreveport Regl,USA,FALSE,32.44661111,3,0,-57.14285714,12/04/2020
Guwahati,VEGT,IND,91.58555556,FALSE,Guwahati,India,FALSE,26.105,6,,0,12/04/2020
Cologne-Bonn,EDDK,DEU,7.142744444,TRUE,Cologne-Bonn,Germany,FALSE,50.86591667,31,-45.61403509,-95.2887538,12/04/2020
Dresden,EDDC,DEU,13.768,TRUE,Dresden,Germany,FALSE,51.13434444,53,,0,12/04/2020
Beira,FQBR,MOZ,34.90472222,FALSE,Beira,Mozambique,FALSE,-19.79583333,3,,0,12/04/2020
Milan,LIMC,ITA,8.723055556,TRUE,Malpensa,Italy,FALSE,45.63,28,-33.33333333,-98.44011142,12/04/2020
Nuku'Alofa,NFTF,TON,-175.1396306,FALSE,Fua'Amotu Intl,Tonga,FALSE,-21.24105,3,0,-78.57142857,12/04/2020
Kigali,HRYR,RWA,30.13838611,FALSE,Kigali Intl,Rwanda,FALSE,-1.968447222,1,0,-98.57142857,12/04/2020
Apia,NSFA,WSM,-171.9971667,FALSE,Faleolo Intl,W Samoa,FALSE,-13.82966667,1,0,-96.15384615,12/04/2020
Panama City,MPTO,PAN,-79.38333333,TRUE,Tocumen Intl,Panama,FALSE,9.071388889,33,-21.42857143,-97.42990654,12/04/2020
Cagliari,LIEE,ITA,9.056111111,TRUE,Elmas,Italy,FALSE,39.24722222,127,,0,12/04/2020
Boston,KBOS,USA,-71.00638889,TRUE,Logan Intl,USA,FALSE,42.36294444,23,-64.0625,-95.49902153,12/04/2020
Karaganda,UAKK,KAZ,73.33527778,TRUE,Karaganda,Kazakhstan,FALSE,49.67166667,11,,0,12/04/2020
Lincoln,KLNK,USA,-96.75911111,FALSE,Lincoln,USA,FALSE,40.85088889,1,,0,12/04/2020
Kasane,FBKE,BWA,25.1626,FALSE,Kasane,Botswana,FALSE,-17.83084722,7,,0,12/04/2020
Shenzhen,ZGSZ,CHN,113.8116667,TRUE,Baoan,China,FALSE,22.63833333,14,-41.66666667,-96.13259669,12/04/2020
Isle Of Man,EGNS,GBR,-4.623333333,TRUE,Isle Of Man,UK,FALSE,54.08333333,18,,0,12/04/2020
Belfast,EGAC,GBR,-5.8725,TRUE,Belfast City,UK,TRUE,54.61805556,11,,0,12/04/2020
Manchester,EGCC,GBR,-2.275,TRUE,Manchester,UK,FALSE,53.35388889,14,-60,-98.99713467,12/04/2020
Las Vegas,KLAS,USA,-115.15225,FALSE,Mc Carran Intl,USA,FALSE,36.08005556,1,0,-99.58506224,12/04/2020
Mc Allen,KMFE,USA,-98.23861111,FALSE,Mc Allen Miller Intl,USA,FALSE,26.17583333,2,-71.42857143,-93.93939394,12/04/2020
Magnitogorsk,USCM,RUS,58.75555556,FALSE,Magnitogorsk,Russia,FALSE,53.39305556,1,,0,12/04/2020
Bandar Seri Begawan,WBSB,BRN,114.9283528,TRUE,Brunei Intl,Brunei,FALSE,4.9442,9,12.5,-94.33962264,12/04/2020
Hefei,ZSOF,CHN,116.975,FALSE,Xinqiao,China,FALSE,31.98666667,4,0,-88.88888889,12/04/2020
Craiova,LRCV,ROU,23.88861111,TRUE,Craiova,Romania,FALSE,44.31805556,20,,0,12/04/2020
Caen,LFRK,FRA,-0.45,FALSE,Carpiquet,France,FALSE,49.17333333,5,,0,12/04/2020
Brno,LKTB,CZE,16.69388889,TRUE,Turany,Czech,FALSE,49.15138889,14,,0,12/04/2020
Milwaukee,KMKE,USA,-87.89705556,FALSE,Gen Mitchell Intl,USA,FALSE,42.94694444,4,0,-78.94736842,12/04/2020
Hamburg,EDHI,DEU,9.832286111,FALSE,Finkenwerder,Germany,FALSE,53.53379722,1,,0,12/04/2020
Maun,FBMN,BWA,23.42805556,TRUE,Maun,Botswana,FALSE,-19.9725,9,,0,12/04/2020
Seoul/Incheon,RKSI,KOR,126.4391667,TRUE,Incheon Intl,Korea,FALSE,37.4625,312,-34.17721519,-91.25805548,12/04/2020
Bali,WADD,IDN,115.1691667,TRUE,I Gusti Ngurah Rai,Indonesia,FALSE,-8.7475,12,-65.71428571,-98.25834543,12/04/2020
Medan,WIMM,IDN,98.88527778,FALSE,Kualanamu International,Indonesia,FALSE,3.642222222,5,400,-96.62162162,12/04/2020
Al Najaf,ORNI,IRQ,44.40416667,TRUE,Al-Ashraf Intl,Iraq,TRUE,31.98972222,115,,0,12/04/2020
Bengaluru,VOBL,IND,77.70555556,FALSE,Kempegowda Intl,India,FALSE,13.19888889,4,-42.85714286,-98.4,12/04/2020
Chihuahua,MMCU,MEX,-105.9629639,TRUE,Gen Div P A Roberto Fierro Villalobos Intl,Mexico,FALSE,28.70232778,10,-47.36842105,-74.35897436,12/04/2020
Noumea,NWWW,NCL,166.2161111,FALSE,Tontouta,New Caledonia,FALSE,-22.01638889,5,-16.66666667,-87.5,12/04/2020
Chennai,VOMM,IND,80.17555556,FALSE,Chennai Intl,India,FALSE,12.995,6,20,-98.1981982,12/04/2020
Mogadishu,HCMM,SOM,45.305,TRUE,Mogadishu,Somalia,FALSE,2.013333333,21,,0,12/04/2020
St Maarten I,TNCM,ANT,-63.10895833,TRUE,Princess Juliana Intl,Neth Antilles,FALSE,18.04092778,11,-38.88888889,-92.56756757,12/04/2020
Lapu-Lapu,RPVM,PHL,123.9794194,FALSE,Lapu Lapu/Mactan-Cebu Intl,Philippines,FALSE,10.30754444,1,-66.66666667,-99.62686567,12/04/2020
Savannah,KSAV,USA,-81.20213889,TRUE,Savannah/Hilton Head Intl,USA,FALSE,32.12758333,11,,0,12/04/2020
Cap Haitien,MTCH,HTI,-72.19472222,FALSE,Cap Haitien Intl,Haiti,FALSE,19.73277778,1,0,-88.88888889,12/04/2020
Syktyvkar,UUYY,RUS,50.84510556,FALSE,Syktyvkar,Russia,FALSE,61.64696667,3,,0,12/04/2020
Montevideo,SUMU,URY,-56.02805556,FALSE,Carrasco Intl/Gen C L Berisso,Uruguay,FALSE,-34.83388889,7,600,-93.06930693,12/04/2020
Wellington,NZWN,NZL,174.8052778,FALSE,Wellington Intl,New Zealand,FALSE,-41.32722222,1,0,-98.55072464,12/04/2020
Izmir,LTBJ,TUR,27.155,FALSE,Adnan Menderes,Turkey,FALSE,38.28916667,1,0,-99.61089494,12/04/2020
Moscow,UUDD,RUS,37.90638889,TRUE,Domodedovo,Russia,FALSE,55.40861111,14,0,-97.68976898,12/04/2020
Florence,LIRQ,ITA,11.20277778,TRUE,Peretola,Italy,FALSE,43.80861111,307,,0,12/04/2020
Asuncion,SGAS,PRY,-57.51682778,TRUE,Silvio Pettirossi Intl,Paraguay,FALSE,-25.24108889,59,,0,12/04/2020
Grand Cayman,MWCR,CYM,-81.35776944,FALSE,Roberts Intl,Cayman Is,FALSE,19.29277778,7,-12.5,-93.63636364,12/04/2020
Kaunas,EYKA,LTU,24.08472222,TRUE,Kaunas Intl,Lithuania,FALSE,54.96388889,71,,0,12/04/2020
Santa Maria,LPAZ,XJI,-25.17111111,FALSE,Santa Maria,Azores,FALSE,36.97388889,1,0,-75,12/04/2020
Pohnpei I,PTPN,FSM,158.2098056,FALSE,Pohnpei Intl,Micronesia,FALSE,6.985083333,4,,0,12/04/2020
Biak,WABB,IDN,136.1098917,FALSE,Frans Kaisiepo,Indonesia,FALSE,-1.191808333,1,,0,12/04/2020
Shanghai,ZSPD,CHN,121.7933333,TRUE,Pudong,China,FALSE,31.145,238,-39.44020356,-88.32761157,12/04/2020
Ulan-Ude,UIUU,RUS,107.4383333,FALSE,Mukhino,Russia,FALSE,51.80777778,3,,0,12/04/2020
La Reunion,FMEE,REU,55.51638889,FALSE,Roland Garros,Reunion,FALSE,-20.89,4,-42.85714286,-96.15384615,12/04/2020
Zanzibar,HTZA,TZA,39.225175,FALSE,Abeid Amani Karume Intl,Tanzania,FALSE,-6.224891667,1,0,-96.55172414,12/04/2020
Pardubice,LKPD,CZE,15.73857222,FALSE,Pardubice,Czech,FALSE,50.01345833,2,,0,12/04/2020
Sapporo,RJCC,JPN,141.6925,FALSE,New Chitose,Japan,FALSE,42.77527778,1,0,-99.31972789,12/04/2020
Lisbon,LPPT,PRT,-9.134166667,TRUE,Lisbon,Portugal,FALSE,38.77416667,16,-71.92982456,-99.15119363,12/04/2020
Mangalore,VOML,IND,74.88972222,TRUE,Mangalore,India,FALSE,12.96194444,36,,0,12/04/2020
Birmingham,KBHM,USA,-86.75230556,FALSE,Birmingham-Shuttlesworth Intl,USA,FALSE,33.56388889,1,0,-50,12/04/2020
Rabat,GMME,MAR,-6.751666667,TRUE,Sale Intl,Morocco,FALSE,34.05138889,69,,0,12/04/2020
East Midlands,EGNX,GBR,-1.327777778,TRUE,East Midlands,UK,FALSE,52.83111111,12,-25,-95.66787004,12/04/2020
Santa Barbara,KSBA,USA,-119.8415,FALSE,Santa Barbara Mun,USA,FALSE,34.42619444,2,,0,12/04/2020
Tours,LFOT,FRA,0.723180556,TRUE,Val De Loire AB,France,FALSE,47.43184167,11,,0,12/04/2020
Busan,RKPK,KOR,128.9380556,FALSE,Gimhae Intl,Korea,FALSE,35.18055556,2,0,-99.63436929,12/04/2020
Belfast,EGAA,GBR,-6.215833333,FALSE,Aldergrove,UK,FALSE,54.6575,2,0,-98.55072464,12/04/2020
Lublin,EPLB,POL,22.71361111,TRUE,Lublin,Poland,TRUE,51.24027778,17,,0,12/04/2020
Stavanger,ENZV,NOR,5.637777778,TRUE,Sola,Norway,FALSE,58.87666667,140,,0,12/04/2020
Basrah,ORMM,IRQ,47.66214167,TRUE,Basrah Intl,Iraq,TRUE,30.54906944,43,,0,12/04/2020
Guangzhou,ZGGG,CHN,113.3083333,TRUE,Baiyun,China,FALSE,23.39333333,56,-35.63218391,-94.32624113,12/04/2020
Kumamoto,RJFT,JPN,130.8552778,TRUE,Kumamoto,Japan,FALSE,32.83722222,8,,0,12/04/2020
Antwerp,EBAW,BEL,4.460277778,TRUE,Deurne,Belgium,FALSE,51.18944444,28,,0,12/04/2020
Cali,SKCL,COL,-76.38169444,TRUE,Alfonso Bonilla Aragon Intl,Colombia,FALSE,3.543083333,67,,0,12/04/2020
Eugene,KEUG,USA,-123.2119722,FALSE,Mahlon Sweet,USA,FALSE,44.12458333,1,,0,12/04/2020
Tahiti I,NTAA,PYF,-149.6113889,FALSE,Faaa,French Pacific O.T.,FALSE,-17.55666667,1,0,-96.875,12/04/2020
Takamatsu,RJOT,JPN,134.0155556,TRUE,Takamatsu,Japan,FALSE,34.21416667,20,,0,12/04/2020
Punta Arenas,SCCI,CHL,-70.85361111,FALSE,Carlos Ibanez Del Campo Intl,Chile,FALSE,-53.00361111,1,,0,12/04/2020
Taipei,RCTP,TWN,121.2322222,TRUE,Taiwan Taoyuan Intl,Taiwan,FALSE,25.08027778,232,-30.33033033,-88.34756404,12/04/2020
Chiang Mai,VTCC,THA,98.96277778,FALSE,Chiang Mai Intl,Thailand,FALSE,18.77138889,1,0,-99.5412844,12/04/2020
Ponce,TJPS,PRI,-66.563,TRUE,Mercedita,Puerto Rico,FALSE,18.00830556,13,,0,12/04/2020
Port Hedland,YPPD,AUS,118.6263889,FALSE,Port Hedland Intl,Australia,FALSE,-20.37777778,1,0,-66.66666667,12/04/2020
Nuevo Laredo,MMNL,MEX,-99.56991667,FALSE,Quetzalcoatl Intl,Mexico,FALSE,27.44336389,5,,0,12/04/2020
Grand Turk I.,MBGT,TCA,-71.14183611,TRUE,Jags McCartney Intl,Turks Is,FALSE,21.44442222,26,,0,12/04/2020
Wuhan,ZHHH,CHN,114.2066667,FALSE,Tianhe,China,FALSE,30.785,2,0,-98.82352941,12/04/2020
Wilkes-Barre,KAVP,USA,-75.72338889,FALSE,Wilkes-Barre-Scranton Intl,USA,FALSE,41.33847222,2,,0,12/04/2020
Sendai,RJSS,JPN,140.9169444,TRUE,Sendai,Japan,FALSE,38.13972222,28,,0,12/04/2020
Missoula,KMSO,USA,-114.0905556,FALSE,Missoula Intl,USA,FALSE,46.91630556,1,,0,12/04/2020
Quito,SEQM,ECU,-78.35444444,TRUE,Mariscal Sucre Intl,Ecuador,FALSE,-0.124166667,19,-20.83333333,-89.56043956,12/04/2020
Bordeaux,LFBD,FRA,-0.715277778,TRUE,Merignac,France,FALSE,44.82861111,358,,0,12/04/2020
Abaco I,MYAT,BHS,-77.39127222,FALSE,Treasure Cay,Bahamas,FALSE,26.74534167,2,100,-95.91836735,12/04/2020
Nagpur,VANP,IND,79.04833333,TRUE,Dr. Ambedkar Intl,India,FALSE,21.09194444,11,,0,12/04/2020
Satu Mare,LRSM,ROU,22.88555556,FALSE,Satu Mare,Romania,FALSE,47.70333333,2,,0,12/04/2020
Gdansk,EPGD,POL,18.46611111,TRUE,Lech Walesa,Poland,FALSE,54.3775,310,,0,12/04/2020
Skopje,LWSK,MKD,21.62138889,FALSE,Alexander the Great,"Macedonia, F Y R",FALSE,41.96166667,1,0,-98.73417722,12/04/2020
Bissau,GGOV,GNB,-15.65572222,TRUE,Osvaldo Viera,Guinea-Bissau,TRUE,11.88886111,8,,0,12/04/2020
Iraklion,LGIR,GRC,25.18027778,TRUE,Nikos Kazantzakis,Greece,FALSE,35.33972222,365,,0,12/04/2020
Hamburg,EDDH,DEU,9.988227778,TRUE,Hamburg,Germany,FALSE,53.63038889,11,-60.71428571,-98.7804878,12/04/2020
Ft Lauderdale,KFLL,USA,-80.14969444,TRUE,Ft Lauderdale-Hollywood Intl,USA,FALSE,26.07166667,47,-44.70588235,-93.13868613,12/04/2020
Kansas City,KMCI,USA,-94.71388889,FALSE,Kansas City Intl,USA,FALSE,39.29761111,1,0,-87.5,12/04/2020
Vagar,EKVG,FRO,-7.277219444,FALSE,Vagar,Faroe Is,FALSE,62.06362778,2,-33.33333333,-94.73684211,12/04/2020
Lodz,EPLL,POL,19.39805556,TRUE,Lublinek,Poland,FALSE,51.72194444,13,,0,12/04/2020
Roadtown,TUPJ,VGB,-64.54166667,TRUE,Terrance B Lettsome Intl,British Virgin Is,FALSE,18.44555556,8,-11.11111111,-92.79279279,12/04/2020
Cork,EICK,IRL,-8.491111111,FALSE,Cork,Ireland,FALSE,51.84138889,4,-60,-97.98994975,12/04/2020
Urgench,UTNU,UZB,60.645,TRUE,Urgench,Uzbekistan,FALSE,41.58333333,11,,0,12/04/2020
Bratislava,LZIB,SVK,17.21277778,FALSE,M.R. Stefanik,Slovakia,FALSE,48.17,1,0,-98.9010989,12/04/2020
Antalya,LTAI,TUR,30.79277778,FALSE,Antalya,Turkey,FALSE,36.90027778,2,0,-99.85163205,12/04/2020
Surabaya,WARR,IDN,112.78,FALSE,Juanda,Indonesia,FALSE,-7.383611111,1,0,-99.26470588,12/04/2020
Walvis Bay,FYWB,NAM,14.64527778,TRUE,Walvis Bay,Namibia,FALSE,-22.98,14,,0,12/04/2020
Sharjah,OMSJ,ARE,55.51611111,TRUE,Sharjah Intl,UAE,FALSE,25.32916667,14,40,-98.06629834,12/04/2020
Menorca,LEMH,ESP,4.218611111,TRUE,Menorca,Spain,FALSE,39.8625,89,,0,12/04/2020
Singapore,WSSS,SGP,103.989325,TRUE,Changi,Singapore,FALSE,1.359211111,127,-45.02164502,-96.37350086,12/04/2020
Tashkent,UTTT,UZB,69.28166667,FALSE,Yuzhny,Uzbekistan,FALSE,41.25666667,1,-66.66666667,-99.51456311,12/04/2020
Osijek,LDOS,HRV,18.81015556,FALSE,Klisa,Croatia,FALSE,45.46266667,2,,0,12/04/2020
Tyumen,USTR,RUS,65.31611111,FALSE,Roshchino,Russia,FALSE,57.16833333,4,,0,12/04/2020
Bangkok,VTBS,THA,100.7488889,TRUE,Suvarnabhumi Intl,Thailand,FALSE,13.68583333,103,-50.71770335,-96.12490594,12/04/2020
Darwin,YPDN,AUS,130.8766667,FALSE,Darwin Intl,Australia,FALSE,-12.41472222,2,-33.33333333,-95.12195122,12/04/2020
Luxor,HELX,EGY,32.70638889,TRUE,Luxor Intl,Egypt,FALSE,25.67083333,8,,0,12/04/2020
Tetouan,GMTN,MAR,-5.32,FALSE,Saniat R'mel,Morocco,FALSE,35.59444444,2,,0,12/04/2020
Agadir,GMAD,MAR,-9.411388889,TRUE,Al Massira Intl,Morocco,FALSE,30.3225,82,,0,12/04/2020
Cluj-Napoca,LRCL,ROU,23.69222222,FALSE,Avram Iancu,Romania,FALSE,46.78916667,3,-88.46153846,-97.39130435,12/04/2020
Kristiansand,ENCN,NOR,8.085,TRUE,Kjevik,Norway,FALSE,58.20388889,38,,0,12/04/2020
Ottawa,CYOW,CAN,-75.66726944,TRUE,Macdonald-Cartier Intl,Canada,FALSE,45.3225,10,-50,-93.5483871,12/04/2020
Astrakhan,URWA,RUS,48.00638889,FALSE,Astrakhan,Russia,FALSE,46.28333333,2,,0,12/04/2020
Aalborg,EKYT,DNK,9.849163889,TRUE,Aalborg,Denmark,FALSE,57.09278889,70,,0,12/04/2020
Timisoara,LRTR,ROU,21.33787222,TRUE,Traian Vuia,Romania,FALSE,45.80983333,38,,0,12/04/2020
Ras Al Khaimah,OMRK,ARE,55.93888889,TRUE,Ras Al Khaimah Intl,UAE,FALSE,25.61333333,12,,0,12/04/2020
Dubai,OMDW,ARE,55.17555556,FALSE,Al Maktoum Intl,UAE,FALSE,24.91833333,7,-65,-89.70588235,12/04/2020
Houston,KHOU,USA,-95.27883333,TRUE,Hobby,USA,FALSE,29.64541667,9,-25,-88.75,12/04/2020
Bergamo,LIME,ITA,9.700277778,TRUE,Orio Al Serio,Italy,FALSE,45.66888889,545,,0,12/04/2020
Jinan,ZSJN,CHN,117.215,TRUE,Yaoqiang,China,FALSE,36.85833333,74,,0,12/04/2020
Bacau,LRBC,ROU,26.91027778,FALSE,Bacau,Romania,FALSE,46.52194444,2,,0,12/04/2020
Dushanbe,UTDD,TJK,68.825,TRUE,Dushanbe,Tajikistan,FALSE,38.54333333,76,,0,12/04/2020
Annaba,DABB,DZA,7.809444444,TRUE,Rabah Bitat,Algeria,FALSE,36.82222222,15,,0,12/04/2020
Belem,SBBE,BRA,-48.47888889,TRUE,Val De Cans/Julio Cezar Ribeiro Intl,Brazil,FALSE,-1.384722222,14,,0,12/04/2020
La Ceiba,MHLC,HND,-86.85330278,FALSE,Goloson Intl,Honduras,TRUE,15.74236389,2,,0,12/04/2020
Rockhampton,YBRK,AUS,150.4752778,FALSE,Rockhampton,Australia,FALSE,-23.38194444,4,,0,12/04/2020
Orlando,KMCO,USA,-81.309,TRUE,Orlando Intl,USA,FALSE,28.42938889,41,-50,-91.49377593,12/04/2020
Springfield,KSGF,USA,-93.38863889,FALSE,Springfield-Branson Natl,USA,FALSE,37.24566667,1,,0,12/04/2020
Dili,WPDL,TLS,125.52485,FALSE,Pres Nicolau Lobato Intl,Timor-Leste,FALSE,-8.546416667,2,-50,-95.34883721,12/04/2020
Leipzig-Halle,EDDP,DEU,12.23638333,TRUE,Leipzig-Halle,Germany,FALSE,51.42399167,16,-15.78947368,-85.45454545,12/04/2020
Cape Town,FACT,ZAF,18.60429167,FALSE,Cape Town Intl,South African Rep,FALSE,-33.97136944,1,0,-99.08256881,12/04/2020
Mostar,LQMO,BIH,17.84588056,FALSE,Mostar,Bosnia-Herzegovina,FALSE,43.28290278,3,,0,12/04/2020
Perugia,LIRZ,ITA,12.51027778,TRUE,San Francesco,Italy,FALSE,43.09722222,9,,0,12/04/2020
Novosibirsk,UNNT,RUS,82.59916667,FALSE,Tolmachevo,Russia,FALSE,55.03333333,3,-72.72727273,-97.54098361,12/04/2020
Beirut,OLBA,LBN,35.49002778,FALSE,Rafic Hariri Intl,Lebanon,FALSE,33.81905,6,0,-98.91107078,12/04/2020
Sarajevo,LQSA,BIH,18.33176667,TRUE,Sarajevo,Bosnia-Herzegovina,FALSE,43.82447222,61,,0,12/04/2020
Ouagadougou,DFFD,BFA,-1.512,FALSE,Ouagadougou,Burkina Faso,TRUE,12.35366667,1,0,-97.82608696,12/04/2020
S C De Bariloche,SAZS,ARG,-71.15777778,FALSE,S C De Bariloche,Argentina,FALSE,-41.15111111,1,,0,12/04/2020
Vienna,LOWW,AUT,16.56972222,TRUE,Schwechat,Austria,FALSE,48.11027778,31,-44.64285714,-98.70940883,12/04/2020
Seychelles,FSIA,SYC,55.52185278,TRUE,Seychelles Intl,Seychelles,FALSE,-4.674344444,61,,0,12/04/2020
Frankfurt/Main,EDDF,DEU,8.570455556,TRUE,Frankfurt/Main,Germany,FALSE,50.03330556,324,-31.50105708,-92.37826394,12/04/2020
Lille,LFQQ,FRA,3.086944444,TRUE,Lesquin,France,FALSE,50.56333333,48,,0,12/04/2020
Bocas Del Toro,MPBO,PAN,-82.25083333,FALSE,Bocas Del Toro Intl,Panama,FALSE,9.340833333,1,,0,12/04/2020
St Martin I,TFFG,GLP,-63.04888889,FALSE,Grand Case,Guadeloupe,FALSE,18.10055556,1,,0,12/04/2020
Mazatlan,MMMZ,MEX,-106.2645583,TRUE,Gen Rafael Buelna Intl,Mexico,FALSE,23.16148333,8,-63.63636364,-57.89473684,12/04/2020
Aqaba,OJAQ,JOR,35.01806389,FALSE,King Hussein Intl,Jordan,FALSE,29.61161667,2,,0,12/04/2020
Bridgetown,TBPB,BRB,-59.49222222,FALSE,Grantley Adams Intl,Barbados,FALSE,13.07472222,7,-65,-95.95375723,12/04/2020
Indianapolis,KIND,USA,-86.29463889,TRUE,Indianapolis Intl,USA,FALSE,39.71730556,24,-20,-52.94117647,12/04/2020
Syracuse,KSYR,USA,-76.10630556,FALSE,Syracuse Hancock Intl,USA,FALSE,43.11119444,3,,0,12/04/2020
Niue Island,NIUE,NIU,-169.9266667,FALSE,Niue Intl,Niue,FALSE,-19.07777778,1,0,-50,12/04/2020
Adelaide,YPAD,AUS,138.5305556,TRUE,Adelaide Intl,Australia,FALSE,-34.945,55,,0,12/04/2020
Marseille/Provence,LFML,FRA,5.215,FALSE,Marseille/Provence,France,FALSE,43.43666667,6,0,-98.75776398,12/04/2020
Rome,LIRA,ITA,12.59722222,FALSE,Ciampino,Italy,FALSE,41.79944444,1,0,-99.66442953,12/04/2020
London,EGLL,GBR,-0.461388889,TRUE,Heathrow,UK,FALSE,51.4775,290,-54.75819033,-93.04889741,12/04/2020
Niederrhein,EDLV,DEU,6.142172222,TRUE,Niederrhein,Germany,FALSE,51.60241389,82,,0,12/04/2020
Marsa Alam,HEMA,EGY,34.58305556,TRUE,Marsa Alam Intl,Egypt,FALSE,25.55805556,31,,0,12/04/2020
Cancun,MMUN,MEX,-86.87333333,TRUE,Cancun Intl,Mexico,FALSE,21.04277778,66,-51.11111111,-90.40697674,12/04/2020
Katunayake,VCBI,LKA,79.8853,TRUE,Bandaranaike Intl Colombo,Sri Lanka,TRUE,7.180188889,11,-56,-97.96296296,12/04/2020
St Louis,KSUS,USA,-90.65205556,FALSE,Spirit Of St Louis,USA,FALSE,38.66211111,1,0,-66.66666667,12/04/2020
Bermuda Is,TXKF,BMU,-64.67870278,FALSE,L F Wade Intl,Bermuda,FALSE,32.36404167,7,-22.22222222,-93.69369369,12/04/2020
Batam,WIDD,IDN,104.1138889,FALSE,Hang Nadim,Indonesia,FALSE,1.118611111,7,,0,12/04/2020
Tokyo,RJTT,JPN,139.7811111,TRUE,Tokyo (Haneda) Intl,Japan,FALSE,35.55333333,67,-54.10958904,-91.80929095,12/04/2020
Bejaia,DAAE,DZA,5.069444444,TRUE,Soummam-Abane Ramdane,Algeria,FALSE,36.71194444,12,,0,12/04/2020
Oujda,GMFO,MAR,-1.925555556,TRUE,Angads Intl,Morocco,FALSE,34.78611111,26,,0,12/04/2020
Fukuoka,RJFF,JPN,130.4516667,FALSE,Fukuoka,Japan,FALSE,33.58444444,5,-37.5,-98.45201238,12/04/2020
Kos,LGKO,GRC,27.09111111,TRUE,Ippokratis,Greece,FALSE,36.79472222,130,,0,12/04/2020
Paro,VQPR,BTN,89.424875,FALSE,Paro,Bhutan,FALSE,27.40346389,3,200,-94.11764706,12/04/2020
Washington,KDCA,USA,-77.03772222,FALSE,Ronald Reagan Washington Natl,USA,FALSE,38.85144444,3,-75,-96,12/04/2020
Monterrey,MMMY,MEX,-100.1069444,TRUE,Gen Mariano Escobedo Intl,Mexico,FALSE,25.77585833,27,-28.94736842,-86.36363636,12/04/2020
Abu Dhabi,OMAA,ARE,54.65111111,TRUE,Abu Dhabi Intl,UAE,FALSE,24.43305556,13,-7.142857143,-98.73908826,12/04/2020
Puerto Plata,MDPP,DOM,-70.57003333,FALSE,Gregorio Luperon Intl,Dom Rep,TRUE,19.7579,1,-50,-96.15384615,12/04/2020
Poprad,LZTT,SVK,20.24111111,FALSE,Tatry,Slovakia,FALSE,49.07361111,1,,0,12/04/2020
Stockholm,ESSB,SWE,17.94222222,TRUE,Bromma,Sweden,FALSE,59.35444444,38,,0,12/04/2020
San Salvador,MYSM,BHS,-74.52365,FALSE,San Salvador Intl,Bahamas,FALSE,24.06312778,1,0,0,12/04/2020
Kerkira,LGKR,GRC,19.91222222,TRUE,Ioannis Kapodistrias,Greece,FALSE,39.60194444,145,,0,12/04/2020
Anchorage,PANC,USA,-149.9981861,TRUE,Stevens Anchorage Intl,USA,FALSE,61.17415556,189,-27.30769231,-18.53448276,12/04/2020
Houston,KIAH,USA,-95.34144444,TRUE,George Bush Intercontinental/Houston,USA,FALSE,29.98444444,92,-45.88235294,-89.21453693,12/04/2020
Vladivostok,UHWW,RUS,132.1488889,FALSE,Knevichi,Russia,FALSE,43.39805556,2,-60,-98.07692308,12/04/2020
Newark,KEWR,USA,-74.16868611,TRUE,Newark Liberty Intl,USA,FALSE,40.69247778,51,-50,-94.51022605,12/04/2020
Montpellier/Mediterranee,LFMT,FRA,3.961388889,TRUE,Montpellier/Mediterranee,France,TRUE,43.58333333,53,,0,12/04/2020
Johannesburg,FAOR,ZAF,28.24231667,FALSE,O.R. Tambo Intl,South African Rep,FALSE,-26.13369444,6,50,-99.13294798,12/04/2020
London,EGKK,GBR,-0.190277778,FALSE,Gatwick,UK,FALSE,51.14805556,4,-86.66666667,-99.83484723,12/04/2020
Thessaloniki,LGTS,GRC,22.97091667,TRUE,Makedonia,Greece,FALSE,40.51972222,291,,0,12/04/2020
Detroit,KDTW,USA,-83.35338889,TRUE,Detroit Metro Wayne Co,USA,FALSE,42.21241667,32,-33.33333333,-88.53046595,12/04/2020
Washington,KIAD,USA,-77.45994444,TRUE,Washington Dulles Intl,USA,FALSE,38.94744444,32,-28.88888889,-93.88145315,12/04/2020
Toluca,MMTO,MEX,-99.56603333,TRUE,Lic Adolfo Lopez Mateos Intl,Mexico,FALSE,19.33708333,12,-36.84210526,-73.91304348,12/04/2020
Bari,LIBD,ITA,16.765,TRUE,Palese,Italy,FALSE,41.13805556,170,,0,12/04/2020
Gan Island,VRMG,MDV,73.15564722,FALSE,Gan,Maldives,FALSE,-0.69325,4,,0,12/04/2020
Santander,LEXJ,ESP,-3.82,TRUE,Seve Ballesteros-Santander,Spain,FALSE,43.42694444,32,,0,12/04/2020
San Jose,KSJC,USA,-121.9291111,FALSE,Mineta San Jose Intl,USA,FALSE,37.36266667,4,-50,-94.52054795,12/04/2020
Grand Forks,KGFK,USA,-97.17377778,FALSE,Grand Forks Intl,USA,FALSE,47.94727778,1,,0,12/04/2020
Kuching,WBGG,MYS,110.3377778,TRUE,Kuching Intl,Malaysia,FALSE,1.484722222,40,,0,12/04/2020
New York,KJFK,USA,-73.77869444,TRUE,Kennedy Intl,USA,FALSE,40.639925,138,-41.7721519,-92.09169054,12/04/2020
Moroni,FMCH,COM,43.271325,TRUE,Prince Said Ibrahim,Comoros,FALSE,-11.53651944,13,,0,12/04/2020
Copenhagen,EKCH,DNK,12.65597222,TRUE,Kastrup,Denmark,FALSE,55.61791667,45,-43.03797468,-97.84688995,12/04/2020
Bukhara,UTSB,UZB,64.48333333,TRUE,Bukhara,Uzbekistan,FALSE,39.775,12,,0,12/04/2020
Preveza,LGPZ,GRC,20.765,TRUE,Aktion,Greece,FALSE,38.92555556,11,,0,12/04/2020
Chittagong,VGEG,BGD,91.82220833,TRUE,Shah Amanat Intl,Bangladesh,FALSE,22.25702222,70,,0,12/04/2020
Pula,LDPL,HRV,13.92219167,TRUE,Pula,Croatia,FALSE,44.89353333,27,,0,12/04/2020
Winnipeg,CYWG,CAN,-97.24009444,TRUE,Richardson Intl,Canada,FALSE,49.91001111,18,-37.93103448,-78.31325301,12/04/2020
Brindisi,LIBR,ITA,17.94805556,TRUE,Casale,Italy,FALSE,40.66055556,55,,0,12/04/2020
Sacramento,KSMF,USA,-121.5907778,FALSE,Sacramento Intl,USA,FALSE,38.69544444,2,-71.42857143,-91.66666667,12/04/2020
Nouadhibou,GQPP,MRT,-17.03113889,FALSE,Nouadhibou,Mauritania,FALSE,20.92844167,3,,0,12/04/2020
Almaty,UAAA,KAZ,77.04388889,FALSE,Almaty,Kazakhstan,FALSE,43.35555556,4,0,-98.02955665,12/04/2020
Ankara,LTAC,TUR,32.995,FALSE,Esenboga,Turkey,FALSE,40.12805556,1,0,-99.32432432,12/04/2020
St Gallen,LSZR,CHE,9.561944444,TRUE,Altenrhein,Switzerland,FALSE,47.485,20,,0,12/04/2020
Tromso,ENTC,NOR,18.91777778,FALSE,Langnes,Norway,FALSE,69.68138889,6,,0,12/04/2020
Balikpapan,WALL,IDN,116.8938889,TRUE,Sultan Aji Muhammad Sulaiman Sepinggan,Indonesia,FALSE,-1.267222222,8,,0,12/04/2020
New Orleans,KMSY,USA,-90.25902778,FALSE,Armstrong New Orleans Intl,USA,FALSE,29.99327778,3,0,-80,12/04/2020
Mustique,TVSM,VCT,-61.18004167,FALSE,Mustique Is,St Vincent,FALSE,12.88772778,1,,0,12/04/2020
Port-Au-Prince,MTPP,HTI,-72.2925,FALSE,Toussaint Louverture Intl,Haiti,FALSE,18.58,7,-30,-91.46341463,12/04/2020
Banja Luka,LQBK,BIH,17.297475,FALSE,Banja Luka,Bosnia-Herzegovina,FALSE,44.94139722,1,0,-87.5,12/04/2020
Salt Lake City,KSLC,USA,-111.9777722,FALSE,Salt Lake City Intl,USA,FALSE,40.78838889,5,-70.58823529,-93.58974359,12/04/2020
Mexico City,MMMX,MEX,-99.07196944,TRUE,Benito Juarez Intl,Mexico,FALSE,19.43639444,126,-52.45283019,-89.4912427,12/04/2020
Lubumbashi,FZQA,COD,27.53089722,TRUE,Lubumbashi Intl,"Congo, Dr Of",FALSE,-11.59128333,9,,0,12/04/2020
Tyler,KTYR,USA,-95.40268889,FALSE,Tyler Pounds Regl,USA,FALSE,32.35383056,1,,0,12/04/2020
Ganja,UBBG,AZE,46.32,TRUE,Ganja,Azerbaijan,FALSE,40.73888889,11,,0,12/04/2020
Guilin,ZGKL,CHN,110.0383333,TRUE,Liangjiang,China,FALSE,25.21666667,20,,0,12/04/2020
Zagreb,LDZA,HRV,16.06877778,TRUE,Pleso,Croatia,FALSE,45.74293056,8,-72.4137931,-97.2972973,12/04/2020
Athens,LGAV,GRC,23.9445,TRUE,Eleftherios Venizelos Intl,Greece,FALSE,37.9367,11,-26.66666667,-98.97959184,12/04/2020
Christchurch,NZCH,NZL,172.5344444,TRUE,Christchurch Intl,New Zealand,FALSE,-43.48944444,13,225,-87.5,12/04/2020
St Etienne,LFMH,FRA,4.297222222,FALSE,Boutheon,France,FALSE,45.53416667,1,,0,12/04/2020
Groningen,EHGG,NLD,6.583333333,TRUE,Eelde,Netherlands,FALSE,53.125,19,,0,12/04/2020
Bangui,FEFF,CAF,18.51972222,FALSE,M'Poko,Central African Republic,FALSE,4.397777778,5,,0,12/04/2020
Zadar,LDZD,HRV,15.34669722,TRUE,Zemunik,Croatia,FALSE,44.10826944,62,,0,12/04/2020
Lanzarote,GCRR,XJE,-13.60527778,FALSE,Lanzarote,Canary Is,FALSE,28.94555556,1,-80,-99.65156794,12/04/2020
Murmansk,ULMM,RUS,32.75111111,FALSE,Murmansk,Russia,FALSE,68.78166667,1,,0,12/04/2020
Cartagena,SKCG,COL,-75.51277778,FALSE,Rafael Nunez,Colombia,FALSE,10.44204167,1,0,-98.57142857,12/04/2020
Aguadilla,TJBQ,PRI,-67.12944444,TRUE,Rafael Hernandez,Puerto Rico,FALSE,18.49486111,13,-27.77777778,-83.5443038,12/04/2020
Chicago,KORD,USA,-87.90800556,TRUE,-O'Hare Intl,USA,FALSE,41.97731944,191,-41.76829268,-80.60913706,12/04/2020
Guam I,PGUA,GUM,144.9300583,FALSE,Andersen AFB,Guam,FALSE,13.58388333,4,33.33333333,33.33333333,12/04/2020
Cayo Coco,MUCC,CUB,-78.32861111,TRUE,Jardines del Rey Intl,Cuba,FALSE,22.46111111,17,,0,12/04/2020
Phnom Penh,VDPP,KHM,104.8441667,TRUE,Phnom Penh Intl,Cambodia,FALSE,11.54666667,22,-35.29411765,-95.05617978,12/04/2020
Columbus,KCMH,USA,-82.89216667,FALSE,Port Columbus Intl,USA,FALSE,39.99694444,2,100,-93.5483871,12/04/2020
Uvea I,NLWW,WLF,-176.1991667,FALSE,Hihifo,Wallis Is,FALSE,-13.23833333,2,,0,12/04/2020
Krasnodar,URKK,RUS,39.17027778,TRUE,Pashkovskiy,Russia,FALSE,45.03472222,64,,0,12/04/2020
Voronezh,UUOO,RUS,39.22972222,TRUE,Chertovitskoye,Russia,FALSE,51.815,17,,0,12/04/2020
Port Sudan,HSPN,SDN,37.234075,FALSE,Port Sudan,Sudan,FALSE,19.43363889,1,,0,12/04/2020
Aruba Island,TNCA,XJS,-70.01523056,FALSE,Reina Beatrix Intl,Aruba,FALSE,12.50138056,1,-50,-99.46808511,12/04/2020
Varadero,MUVR,CUB,-81.43527778,TRUE,Juan G. Gomez Intl,Cuba,FALSE,23.03444444,44,,0,12/04/2020
Daegu,RKTN,KOR,128.6588889,TRUE,Daegu Intl,Korea,FALSE,35.89416667,141,,0,12/04/2020
Greer,KGSP,USA,-82.21885833,FALSE,Greenville Spartanburg Intl,USA,FALSE,34.89566667,2,-33.33333333,-83.33333333,12/04/2020
Kingston,MKJP,JAM,-76.7875,TRUE,Norman Manley Intl,Jamaica,FALSE,17.93555556,13,-45.83333333,-91.03448276,12/04/2020
Faro,LPFR,PRT,-7.965833333,FALSE,Faro,Portugal,FALSE,37.01444444,2,-33.33333333,-99.66499162,12/04/2020
Melbourne,YMML,AUS,144.8433333,TRUE,Melbourne Intl,Australia,FALSE,-37.67333333,45,-40,-90.56603774,12/04/2020
Torino,LIMF,ITA,7.649444444,TRUE,Caselle,Italy,FALSE,45.2025,186,,0,12/04/2020
Casper,KCPR,USA,-106.4636389,FALSE,Casper/Natrona Co Intl,USA,FALSE,42.90586111,1,0,-66.66666667,12/04/2020
Singapore,WSAP,SGP,103.9027778,FALSE,Paya Lebar,Singapore,FALSE,1.355722222,2,,0,12/04/2020
Munster/Osnabruck,EDDG,DEU,7.684830556,FALSE,Munster/Osnabruck,Germany,FALSE,52.13464167,1,0,-97.6744186,12/04/2020
Nakhchivan,UBBN,AZE,45.45728056,FALSE,Nakhchivan,Azerbaijan,FALSE,39.18873333,1,,0,12/04/2020
Coimbatore,VOCB,IND,77.04166667,TRUE,Coimbatore,India,FALSE,11.02694444,19,,0,12/04/2020
Sharm El Sheikh,HESH,EGY,34.39333333,TRUE,Sharm El Sheikh Intl,Egypt,FALSE,27.97861111,97,,0,12/04/2020
Xi'An,ZLXY,CHN,108.75,FALSE,Xianyang,China,FALSE,34.445,3,0,-98.18181818,12/04/2020
Libreville,FOOL,GAB,9.412222222,FALSE,Leon M'BA,Gabon,FALSE,0.458333333,1,0,-98.14814815,12/04/2020
Nelafu,NFTV,TON,-173.9680444,FALSE,Vava'u,Tonga,FALSE,-18.58558056,4,,0,12/04/2020
Bellingham,KBLI,USA,-122.5375278,FALSE,Bellingham Intl,USA,FALSE,48.79269444,2,,0,12/04/2020
Samana,MDCY,DOM,-69.73697778,FALSE,El Catey Intl,Dom Rep,TRUE,19.26954722,3,,0,12/04/2020
Baghdad,ORBI,IRQ,44.23457778,FALSE,Baghdad Intl,Iraq,TRUE,33.26253889,7,0,-95.80838323,12/04/2020
Lexington,KLEX,USA,-84.60863889,FALSE,Blue Grass,USA,FALSE,38.03675,3,,0,12/04/2020
Hannover,EDDV,DEU,9.683522222,FALSE,Hannover,Germany,FALSE,52.46021389,2,-33.33333333,-99.5215311,12/04/2020
Roanoke,KROA,USA,-79.97542778,FALSE,Roanoke-Blacksburg Regl/Woodrum,USA,FALSE,37.32546944,1,,0,12/04/2020
Bangkok,VTBD,THA,100.6055556,FALSE,Don Mueang Intl,Thailand,FALSE,13.91444444,1,-83.33333333,-99.90205681,12/04/2020
Oaxaca,MMOX,MEX,-96.72603889,FALSE,Xoxocotlan Intl,Mexico,FALSE,16.99858611,1,0,-92.30769231,12/04/2020
Constantine,DABC,DZA,6.619166667,TRUE,Mohamed Boudiaf,Algeria,FALSE,36.28527778,24,,0,12/04/2020
Cleveland,KBKL,USA,-81.68263889,FALSE,Burke Lakefront,USA,FALSE,41.51785833,1,0,0,12/04/2020
St Barthelemy I,TFFJ,GLP,-62.84388889,FALSE,St Barthelemy I,Guadeloupe,FALSE,17.90444444,1,0,-98.21428571,12/04/2020
Chongqing,ZUCK,CHN,106.64,TRUE,Jiangbei,China,FALSE,29.72,10,-9.090909091,-94.15204678,12/04/2020
Malabo,FGSL,GNQ,8.708611111,FALSE,Malabo,Eq Guinea,FALSE,3.755277778,1,0,-96.875,12/04/2020
Portland,KPDX,USA,-122.5968667,FALSE,Portland Intl,USA,FALSE,45.58870833,2,-60,-97.36842105,12/04/2020
Nagoya,RJGG,JPN,136.8052778,TRUE,Chubu Centrair Intl,Japan,FALSE,34.85833333,16,-27.27272727,-96.56652361,12/04/2020
Poznan,EPPO,POL,16.82638889,FALSE,Lawica,Poland,FALSE,52.42111111,1,0,-99.14529915,12/04/2020
Da Nang,VVDN,VNM,108.2002778,FALSE,Da Nang Intl,Vietnam,FALSE,16.04388889,1,0,-99.75308642,12/04/2020
Lusaka,FLKK,ZMB,28.45666667,FALSE,Kenneth Kaunda Intl,Zambia,FALSE,-15.32666667,1,-75,-97.82608696,12/04/2020
Great Falls,KGTF,USA,-111.3706833,FALSE,Great Falls Intl,USA,FALSE,47.48266667,2,,0,12/04/2020
Kyiv,UKKK,UKR,30.45194444,TRUE,Zhuliany,Ukraine,FALSE,50.40194444,152,,0,12/04/2020
Tarbes,LFBT,FRA,-0.002777778,TRUE,Lourdes-Pyrenees,France,FALSE,43.18555556,15,,0,12/04/2020
Roseau,TDPD,DMA,-61.30138889,FALSE,Douglas Charles Intl,Dominica,FALSE,15.54666667,4,100,-90.24390244,12/04/2020
Aguascalientes,MMAS,MEX,-102.3178944,FALSE,Jesus Teran Intl,Mexico,FALSE,21.70548611,6,-33.33333333,-82.85714286,12/04/2020
Kutaisi,UGKO,GEO,42.48271389,TRUE,Kopitnari,Georgia,FALSE,42.176825,67,,0,12/04/2020
Acapulco,MMAA,MEX,-99.75381944,FALSE,Gen Juan N Alvarez Intl,Mexico,FALSE,16.75709722,2,,0,12/04/2020
Jakarta,WIII,IDN,106.6611111,TRUE,Soekarno-Hatta Intl,Indonesia,FALSE,-6.123611111,64,-33.33333333,-92.70239453,12/04/2020
Reus,LERS,ESP,1.167222222,TRUE,Reus,Spain,FALSE,41.1475,67,,0,12/04/2020
St Petersburg-Clearwater,KPIE,USA,-82.68649167,FALSE,St Pete-Clearwater Intl,USA,FALSE,27.90868611,1,0,-85.71428571,12/04/2020
Chelyabinsk,USCC,RUS,61.50361111,TRUE,Balandino,Russia,FALSE,55.30583333,16,,0,12/04/2020
San Salvador,MSSS,SLV,-89.12555556,FALSE,Ilopango Intl,El Salvador,TRUE,13.69166667,3,200,-66.66666667,12/04/2020
Almiros,LGBL,GRC,22.79444444,FALSE,Nea Anchialos,Greece,FALSE,39.21944444,2,,0,12/04/2020
Djerba,DTTJ,TUN,10.77722222,TRUE,Zarzis,Tunisia,FALSE,33.87555556,95,,0,12/04/2020
Qingdao,ZSQD,CHN,120.3733333,FALSE,Liuting,China,FALSE,36.265,6,-25,-97.79411765,12/04/2020
Delhi,VIDP,IND,77.11222222,TRUE,Indira Gandhi Intl,India,FALSE,28.56861111,17,-50,-98.18376068,12/04/2020
Eleuthera,MYEH,BHS,-76.68136667,FALSE,North Eleuthera,Bahamas,FALSE,25.47563333,7,16.66666667,-69.56521739,12/04/2020
Catania,LICC,ITA,15.06388889,TRUE,Fontanarossa,Italy,FALSE,37.46666667,269,,0,12/04/2020
Trapani,LICT,ITA,12.49343889,FALSE,Birgi,Italy,FALSE,37.91205833,7,,0,12/04/2020
Skiathos,LGSK,GRC,23.50361111,FALSE,Alexandros Papadiamandis,Greece,FALSE,39.1775,3,,0,12/04/2020
Rochester,KRST,USA,-92.50002778,FALSE,Rochester Intl,USA,FALSE,43.90827778,2,0,0,12/04/2020
Banjul,GBYD,GMB,-16.65781389,FALSE,Banjul Intl,Gambia,FALSE,13.34252222,1,0,-94.73684211,12/04/2020
Minneapolis,KMSP,USA,-93.22177778,TRUE,Minneapolis-St Paul Intl/Wold-Chamberlain,USA,FALSE,44.88197222,16,-50,-93.33333333,12/04/2020
Sibiu,LRSB,ROU,24.08555556,TRUE,Sibiu,Romania,FALSE,45.78583333,42,,0,12/04/2020
Konya,LTAN,TUR,32.5625,FALSE,Konya,Turkey,FALSE,37.98055556,6,,0,12/04/2020
Keflavik,BIKF,ISL,-22.60555556,TRUE,Keflavik,Iceland,FALSE,63.985,18,-43.75,-95.72446556,12/04/2020
Tulsa,KTUL,USA,-95.88811111,FALSE,Tulsa Intl,USA,FALSE,36.19838889,3,,0,12/04/2020
Santiago,SCEL,CHL,-70.79380278,TRUE,Arturo Merino Benitez Intl,Chile,FALSE,-33.39444167,40,-42.02898551,-92.39543726,12/04/2020
Tokyo,RJAA,JPN,140.3855556,TRUE,Narita Intl,Japan,FALSE,35.76527778,197,-42.05882353,-89.49333333,12/04/2020
Toulouse,LFBO,FRA,1.367777778,FALSE,Blagnac,France,FALSE,43.635,2,0,-99.46808511,12/04/2020
Luanda,FNLU,AGO,13.23391111,FALSE,4th Of February,Angola,FALSE,-8.855491667,2,-66.66666667,-97.87234043,12/04/2020
Curitiba,SBCT,BRA,-49.17611111,FALSE,Afonso Pena Intl,Brazil,FALSE,-25.53166667,1,0,-87.5,12/04/2020
Muan,RKJB,KOR,126.3827778,TRUE,Muan Intl,Korea,FALSE,34.99138889,40,,0,12/04/2020
Palm Springs,KPSP,USA,-116.5066944,FALSE,Palm Springs Intl,USA,FALSE,33.82966667,1,0,-95.45454545,12/04/2020
Rodos,LGRP,GRC,28.08611111,TRUE,Diagoras,Greece,FALSE,36.40527778,232,,0,12/04/2020
Samos,LGSM,GRC,26.91222222,TRUE,Aristarchos of Samos,Greece,FALSE,37.68916667,8,,0,12/04/2020
Cusco,SPZO,PER,-71.93878056,TRUE,Tnte FAP Alejandro Velazco Astete Intl,Peru,FALSE,-13.53572222,13,,0,12/04/2020
Hakodate,RJCH,JPN,140.8219444,TRUE,Hakodate,Japan,FALSE,41.77,12,,0,12/04/2020
The Valley,TQPF,AIA,-63.05385556,FALSE,Clayton J. Lloyd Intl,Anguilla,FALSE,18.2048,5,0,-50,12/04/2020
Kefallinia,LGKF,GRC,20.50055556,TRUE,Anna Pollatou,Greece,FALSE,38.12,21,,0,12/04/2020
Linz,LOWL,AUT,14.18805556,TRUE,Linz,Austria,FALSE,48.23527778,41,,0,12/04/2020
London,EGLC,GBR,0.055277778,TRUE,London City,UK,TRUE,51.50527778,561,,0,12/04/2020
Fortaleza,SBFZ,BRA,-38.53222222,TRUE,Pinto Martins Intl,Brazil,FALSE,-3.775833333,25,,0,12/04/2020
Hyderabad,VOHS,IND,78.42888889,FALSE,Rajiv Gandhi Intl,India,FALSE,17.24055556,2,-33.33333333,-99.06103286,12/04/2020
Kaliningrad,UMKK,RUS,20.5925,TRUE,Khrabrovo,Russia,FALSE,54.89,29,,0,12/04/2020
Santo Domingo,MDSD,DOM,-69.668925,TRUE,Las Americas Intl,Dom Rep,FALSE,18.42966389,34,-37.03703704,-89.1025641,12/04/2020
Rionegro,SKRG,COL,-75.423,TRUE,Jose Maria Cordova,Colombia,FALSE,6.164461111,9,-40,-93.91891892,12/04/2020
Rimini,LIPR,ITA,12.60944444,TRUE,Rimini,Italy,FALSE,44.01944444,14,,0,12/04/2020
Sarasota/Bradenton,KSRQ,USA,-82.55438889,FALSE,Sarasota-Bradenton Intl,USA,FALSE,27.39544444,2,0,-75,12/04/2020
Makhachkala,URML,RUS,47.65240833,FALSE,Uytash,Russia,FALSE,42.81679722,2,,0,12/04/2020
N'Djamena,FTTJ,TCD,15.02481944,TRUE,Hassan Djamous,Chad,FALSE,12.12494722,28,,0,12/04/2020
Sonderborg,EKSB,DNK,9.791730556,FALSE,Sonderborg,Denmark,FALSE,54.96436667,1,,0,12/04/2020
Oran,DAOO,DZA,-0.611388889,FALSE,Ahmed Benbella,Algeria,FALSE,35.62722222,2,100,-97.43589744,12/04/2020
Split,LDSP,HRV,16.29796389,TRUE,Kastela,Croatia,FALSE,43.53894444,200,,0,12/04/2020
Rochester,KROC,USA,-77.67186667,FALSE,Greater Rochester Intl,USA,FALSE,43.11914167,1,,0,12/04/2020
Minot,KMOT,USA,-101.2780278,FALSE,Minot Intl,USA,FALSE,48.25763889,1,,0,12/04/2020
Omsk,UNOO,RUS,73.31027778,FALSE,Tsentralny,Russia,FALSE,54.96722222,4,,0,12/04/2020
Ixtapa-Zihuatanejo,MMZH,MEX,-101.46055,FALSE,Ixtapa-Zihuatanejo Intl,Mexico,FALSE,17.60162222,3,-57.14285714,-50,12/04/2020
Lyon,LFLL,FRA,5.081111111,FALSE,Saint Exupery,France,FALSE,45.72555556,6,0,-99.05063291,12/04/2020
Santiago,MDST,DOM,-70.60468889,FALSE,Cibao Intl,Dom Rep,FALSE,19.40609167,5,0,-95.8677686,12/04/2020
Manila,RPLL,PHL,121.0136917,TRUE,Ninoy Aquino Intl,Philippines,FALSE,14.50990556,52,-27.77777778,-95.45851528,12/04/2020
Ancona,LIPY,ITA,13.36027778,TRUE,Falconara,Italy,FALSE,43.61666667,34,,0,12/04/2020
Alesund,ENAL,NOR,6.119722222,TRUE,Vigra,Norway,FALSE,62.5625,30,,0,12/04/2020
Kagoshima,RJFK,JPN,130.7194444,TRUE,Kagoshima,Japan,FALSE,31.80333333,23,,0,12/04/2020
St Louis,KSTL,USA,-90.37002778,FALSE,Lambert-St Louis Intl,USA,FALSE,38.74869722,1,0,-97.5,12/04/2020
Algiers,DAAG,DZA,3.214555556,FALSE,Houari Boumediene,Algeria,FALSE,36.69383333,5,0,-98.55072464,12/04/2020
Esfahan,OIFM,IRN,51.86277778,FALSE,Shahid Beheshti Intl,Iran,FALSE,32.75083333,6,,0,12/04/2020
Aberdeen,EGPD,GBR,-2.198055556,TRUE,Dyce,UK,FALSE,57.2025,11,-15.38461538,-91.40625,12/04/2020
Billund,EKBI,DNK,9.151777778,TRUE,Billund,Denmark,FALSE,55.74032222,9,-40,-96.95945946,12/04/2020
Vieuxfort,TLPL,LCA,-60.95472222,FALSE,Hewanorra Intl,St Lucia,FALSE,13.73333333,1,0,-97.72727273,12/04/2020
Khartoum,HSSS,SDN,32.55315278,FALSE,Khartoum,Sudan,FALSE,15.59035556,1,-50,-99.25925926,12/04/2020
Deauville,LFRG,FRA,0.16,FALSE,Normandie,France,FALSE,49.36333333,1,,0,12/04/2020
Peshawar,OPPS,PAK,71.51458333,TRUE,Bacha Khan Intl,Pakistan,FALSE,33.99391389,66,,0,12/04/2020
Liege,EBLG,BEL,5.442777778,TRUE,Liege,Belgium,FALSE,50.63638889,32,-25.58139535,-45.76271186,12/04/2020
Chetumal,MMCM,MEX,-88.32679444,FALSE,Chetumal Intl,Mexico,FALSE,18.50463611,3,,0,12/04/2020
Mauritius,FIMP,MUS,57.68305556,FALSE,Sir Seewoosagur Ramgoolam Intl,Mauritius,FALSE,-20.43,2,100,-98.62068966,12/04/2020
Yaounde,FKYS,CMR,11.55244444,FALSE,Nsimalen,Cameroon,FALSE,3.717333333,1,0,-92.30769231,12/04/2020
Lubeck,EDHL,DEU,10.71922222,FALSE,Blankensee,Germany,FALSE,53.80536667,1,,0,12/04/2020
Latacunga,SELT,ECU,-78.61583333,FALSE,Cotopaxi Intl Alternative,Ecuador,FALSE,-0.906666667,1,,0,12/04/2020
Mikonos,LGMK,GRC,25.34722222,TRUE,Mikonos,Greece,FALSE,37.43722222,44,,0,12/04/2020
Majuro Atoll,PKMJ,MHL,171.2720306,FALSE,Marshall Is Intl,Marshall Is,FALSE,7.064972222,4,-20,-60,12/04/2020
Asyut,HEAT,EGY,31.01194444,TRUE,Asyut Intl,Egypt,FALSE,27.04638889,17,,0,12/04/2020
Ponta Delgada,LPPD,XJI,-25.69777778,FALSE,Joao Paulo II,Azores,FALSE,37.74194444,1,-50,-98.98989899,12/04/2020
Narsarsuaq,BGBW,GRL,-45.425675,FALSE,Narsarsuaq,Greenland,FALSE,61.16071944,1,0,-75,12/04/2020
Montego Bay,MKJS,JAM,-77.91333333,FALSE,Sangster Intl,Jamaica,FALSE,18.50361111,1,-87.5,-99.53917051,12/04/2020
Moncton,CYQM,CAN,-64.67860556,FALSE,Greater Moncton Intl,Canada,FALSE,46.11609444,1,,0,12/04/2020
Toledo,KTOL,USA,-83.80783333,FALSE,Toledo Express,USA,FALSE,41.58680556,1,,0,12/04/2020
Omaha,KOMA,USA,-95.89405556,FALSE,Eppley,USA,FALSE,41.30316667,2,,0,12/04/2020
Nizhny Novgorod,UWGG,RUS,43.78416667,TRUE,Strigino,Russia,FALSE,56.23,20,,0,12/04/2020
Charleston,KCHS,USA,-80.04052778,FALSE,Charleston AFB/Intl,USA,FALSE,32.89864722,1,-50,-90.90909091,12/04/2020
Zandery,SMJP,SUR,-55.20083333,FALSE,J.A. Pengel Intl,Suriname,FALSE,5.451388889,4,100,-88.23529412,12/04/2020
Fes,GMFF,MAR,-4.977777778,TRUE,Saiss Intl,Morocco,FALSE,33.92722222,76,,0,12/04/2020
St Thomas I/Charlotte Amalie,TIST,VIR,-64.97333333,TRUE,King,Virgin Islands,FALSE,18.33730556,50,-26.47058824,-62.12121212,12/04/2020
La Paz,SLLP,BOL,-68.19222222,TRUE,El Alto Intl,Bolivia,FALSE,-16.5125,27,,0,12/04/2020
Tenerife-North,GCXO,XJE,-16.34166667,TRUE,Tenerife-North,Canary Is,FALSE,28.48277778,11,-35.29411765,-93.6416185,12/04/2020
Dublin,EIDW,IRL,-6.27,TRUE,Dublin Intl,Ireland,FALSE,53.42138889,55,-68.02325581,-97.45723532,12/04/2020
Skelleftea,ESNS,SWE,21.07694444,FALSE,Skelleftea,Sweden,FALSE,64.62472222,2,,0,12/04/2020
Harrisburg,KMDT,USA,-76.76261944,FALSE,Harrisburg Intl,USA,FALSE,40.19318889,1,0,0,12/04/2020
A Coruna,LECO,ESP,-8.377222222,TRUE,A Coruna,Spain,FALSE,43.30194444,9,,0,12/04/2020
Kahului,PHOG,USA,-156.4304583,TRUE,Kahului,USA,FALSE,20.89865,14,,0,12/04/2020
Monrovia,GLRB,LBR,-10.35987778,FALSE,Roberts Intl,Liberia,FALSE,6.240444444,1,0,-95.23809524,12/04/2020
Los Angeles,KLAX,USA,-118.4080722,TRUE,Los Angeles Intl,USA,FALSE,33.9425,226,-34.30232558,-82.30227095,12/04/2020
Jackson,KJAN,USA,-90.07588889,FALSE,Jackson-Medgar Wiley Evers Intl,USA,FALSE,32.31116667,1,0,0,12/04/2020
Friedrichshafen,EDNY,DEU,9.511486111,TRUE,Friedrichshafen,Germany,FALSE,47.67131667,17,,0,12/04/2020
Osaka,RJBB,JPN,135.2327778,TRUE,Kansai Intl,Japan,FALSE,34.43416667,82,-26.78571429,-94.03636364,12/04/2020
Manta,SEMT,ECU,-80.67888889,FALSE,Eloy Alfaro Intl,Ecuador,FALSE,-0.946111111,1,0,0,12/04/2020
Nanjing,ZSNJ,CHN,118.8633333,FALSE,Lukou,China,FALSE,31.74333333,4,0,-97.8021978,12/04/2020
Parma,LIMP,ITA,10.29527778,FALSE,Parma,Italy,FALSE,44.82222222,1,,0,12/04/2020
Tijuana,MMTJ,MEX,-116.9699583,FALSE,Gen Abelardo L Rodriguez Intl,Mexico,FALSE,32.54105556,7,-22.22222222,-68.18181818,12/04/2020
Midland,KMAF,USA,-102.2019167,FALSE,Midland Intl,USA,FALSE,31.94252778,1,0,0,12/04/2020
Guam,PGUM,GUM,144.7971306,TRUE,Guam Intl,Guam,FALSE,13.48395,31,-20.51282051,-87.84313725,12/04/2020
Mattala,VCRI,LKA,81.12412778,FALSE,Mattala Rajapaksa Intl,Sri Lanka,FALSE,6.284466667,2,,0,12/04/2020
Langkawi I.,WMKL,MYS,99.73356111,TRUE,Langkawi Intl,Malaysia,FALSE,6.33945,23,,0,12/04/2020
Taipei,RCSS,TWN,121.5525,TRUE,Songshan,Taiwan,FALSE,25.06972222,8,0,-88.57142857,12/04/2020
Higuey,MDPC,DOM,-68.36618611,FALSE,Punta Cana Intl,Dom Rep,FALSE,18.57078056,2,-83.33333333,-99.26199262,12/04/2020
Edinburgh,EGPH,GBR,-3.3725,FALSE,Edinburgh,UK,FALSE,55.95,4,-84,-99.41176471,12/04/2020
Juba,HSSJ,SSD,31.60111667,TRUE,Juba,South Sudan,FALSE,4.872005556,37,,0,12/04/2020
Queretaro,MMQT,MEX,-100.1856611,TRUE,Queretaro Intl,Mexico,FALSE,20.61737222,12,-36.84210526,-84,12/04/2020
Burbank,KBUR,USA,-118.3586667,FALSE,Bob Hope,USA,FALSE,34.20069444,1,0,0,12/04/2020
Windhoek,FYWH,NAM,17.47095,TRUE,Hosea Kutako Intl,Namibia,FALSE,-22.47989444,70,,0,12/04/2020
Yuzhno-Sakhalinsk,UHSS,RUS,142.7175,FALSE,Khomutovo,Russia,FALSE,46.88861111,1,0,-90.90909091,12/04/2020
Havana,MUHA,CUB,-82.40916667,FALSE,Jose Marti Intl,Cuba,FALSE,22.98916667,5,-68.75,-98.66666667,12/04/2020
Reynosa,MMRX,MEX,-98.22824722,FALSE,Gen Lucio Blanco Intl,Mexico,FALSE,26.00858611,2,0,100,12/04/2020
Vaxjo,ESMX,SWE,14.72888889,TRUE,Kronoberg,Sweden,FALSE,56.93027778,15,,0,12/04/2020
Ostend-Brugge,EBOS,BEL,2.862222222,FALSE,Ostend,Belgium,FALSE,51.19888889,5,66.66666667,-82.14285714,12/04/2020
Genoa,LIMJ,ITA,8.8375,FALSE,Sestri,Italy,FALSE,44.41333333,1,0,-98.85057471,12/04/2020
Rota I,PGRO,XJO,145.241125,FALSE,Manglona Intl,Northern Mariana Is,FALSE,14.17435278,1,0,-90,12/04/2020
Lamezia Terme,LICA,ITA,16.24166667,TRUE,Lamezia Terme,Italy,FALSE,38.90833333,54,,0,12/04/2020
Kharkiv,UKHH,UKR,36.29,TRUE,Osnova,Ukraine,FALSE,49.92694444,50,,0,12/04/2020
Uruapan,MMPN,MEX,-102.0388861,FALSE,Lic and Gen Ignacio Lopez Rayon,Mexico,FALSE,19.39645278,2,,0,12/04/2020
Newcastle,EGNT,GBR,-1.689802778,FALSE,Newcastle,UK,FALSE,55.03792222,5,25,-98.24561404,12/04/2020
Xiamen,ZSAM,CHN,118.1266667,TRUE,Gaoqi,China,FALSE,24.545,25,-24.24242424,-88.03827751,12/04/2020
Jeddah,OEJN,SAU,39.15555556,TRUE,King Abdulaziz Intl,Saudi Arabia,FALSE,21.68111111,23,76.92307692,-97.38339022,12/04/2020
Barranquilla,SKBQ,COL,-74.78176667,FALSE,Ernesto Cortissoz,Colombia,FALSE,10.88856944,4,0,-85.18518519,12/04/2020
Palembang,WIPP,IDN,104.7000444,TRUE,Sultan M Badaruddin II,Indonesia,FALSE,-2.901225,20,,0,12/04/2020
Nagasaki,RJFU,JPN,129.9136111,FALSE,Nagasaki,Japan,FALSE,32.91694444,6,,0,12/04/2020
Kunming,ZPPP,CHN,102.9416667,FALSE,Changshui,China,FALSE,25.105,2,0,-99.36102236,12/04/2020
Kinshasa,FZAA,COD,15.44469722,FALSE,N'Djili Intl,"Congo, Dr Of",FALSE,-4.385586111,1,0,-98.11320755,12/04/2020
Gibraltar,LXGB,GIB,-5.349666667,FALSE,Gibraltar,Gibraltar,FALSE,36.15116667,2,-66.66666667,-95,12/04/2020
Nosy-Be,FMNN,MDG,48.30916667,TRUE,Fascene,Madagascar,FALSE,-13.31805556,10,,0,12/04/2020
Paderborn/Lippstadt,EDLP,DEU,8.616316667,TRUE,Paderborn/Lippstadt,Germany,TRUE,51.61408889,43,,0,12/04/2020
White Plains,KHPN,USA,-73.70756389,FALSE,Westchester Co,USA,FALSE,41.06695,2,0,-92.59259259,12/04/2020
Antofagasta,SCFA,CHL,-70.445,FALSE,Cerro Moreno Intl,Chile,FALSE,-23.44444444,3,,0,12/04/2020
Campeche,MMCP,MEX,-90.50030556,FALSE,Alberto Acuna Ongay,Mexico,FALSE,19.81680556,1,0,-50,12/04/2020
Surat Thani,VTSB,THA,99.13904167,TRUE,Surat Thani,Thailand,FALSE,9.136136111,8,,0,12/04/2020
Urumqi,ZWWW,CHN,87.475,FALSE,Diwopu,China,FALSE,43.90833333,1,0,-97.95918367,12/04/2020
Kolkata,VECC,IND,88.44666667,TRUE,Netaji Subhash Chandra Bose Intl,India,FALSE,22.65388889,211,,0,12/04/2020
Jacksonville,KJAX,USA,-81.68783333,FALSE,Jacksonville Intl,USA,FALSE,30.49405556,6,0,-25,12/04/2020
Eagle,KEGE,USA,-106.9159333,FALSE,Eagle Co Regl,USA,FALSE,39.64276111,3,,0,12/04/2020
Kralendijk,TNCB,ANT,-68.26741944,TRUE,Flamingo Intl,Neth Antilles,FALSE,12.13080833,16,,0,12/04/2020
Chiclayo,SPHI,PER,-79.8281,FALSE,Capt FAP J A Quinones Gonzalez INTL,Peru,FALSE,-6.787477778,2,,0,12/04/2020
Vilnius,EYVI,LTU,25.28777778,FALSE,Vilnius Intl,Lithuania,FALSE,54.63694444,5,0,-98.54227405,12/04/2020
Ulaanbaatar,ZMUB,MNG,106.7675,FALSE,Chinggis Khaan Intl,Mongolia,FALSE,47.8425,3,0,-95.23809524,12/04/2020
Fredericton,CYFC,CAN,-66.53721944,FALSE,Fredericton,Canada,FALSE,45.86887778,1,,0,12/04/2020
Tiruchirappalli,VOTR,IND,78.715,FALSE,Tiruchirappalli,India,FALSE,10.76555556,2,0,-97.46835443,12/04/2020
Bandar Abbass,OIKB,IRN,56.37777778,FALSE,Bandar Abbass Intl,Iran,FALSE,27.21861111,2,,0,12/04/2020
Samara,UWWW,RUS,50.15388889,TRUE,Kurumoch,Russia,FALSE,53.50111111,27,,0,12/04/2020
Holguin,MUHG,CUB,-76.315,FALSE,Frank Pais Intl,Cuba,FALSE,20.78555556,1,0,-96.875,12/04/2020
Montreal,CYUL,CAN,-73.74093056,TRUE,Pierre Elliott Trudeau Intl,Canada,FALSE,45.47046389,52,-59.05511811,-94.87179487,12/04/2020
Warsaw,EPMO,POL,20.65194444,TRUE,Modlin,Poland,FALSE,52.45111111,148,,0,12/04/2020
Al Ain,OMAL,ARE,55.60916667,FALSE,Al Ain Intl,UAE,FALSE,24.26166667,3,,0,12/04/2020
Nevis I.,TKPN,XJR,-62.59,FALSE,Vance Winkworth Amory Intl,Nevis Is,FALSE,17.20555556,2,,0,12/04/2020
Belgorod,UUOB,RUS,36.59,FALSE,Belgorod,Russia,FALSE,50.64388889,6,,0,12/04/2020
Samarkand,UTSS,UZB,66.98333333,TRUE,Samarkand,Uzbekistan,FALSE,39.7,23,,0,12/04/2020
Tallahassee,KTLH,USA,-84.35086111,FALSE,Tallahassee Intl,USA,FALSE,30.39675,1,0,0,12/04/2020
San Luis Potosi,MMSP,MEX,-100.9307583,FALSE,Ponciano Arriaga Intl,Mexico,FALSE,22.25426111,5,-54.54545455,-84.375,12/04/2020
Oulu,EFOU,FIN,25.35555556,TRUE,Oulu,Finland,FALSE,64.92916667,8,,0,12/04/2020
Rio Gallegos,SAWG,ARG,-69.31277778,FALSE,Norberto Fernandez,Argentina,FALSE,-51.60888889,1,,0,12/04/2020
Abuja,DNAA,NGA,7.263172222,FALSE,Nnamdi Azikiwe Intl,Nigeria,FALSE,9.006794444,2,0,-94.87179487,12/04/2020
Lahore,OPLA,PAK,74.404575,FALSE,Allama Iqbal Intl,Pakistan,FALSE,31.52156111,6,50,-96.47058824,12/04/2020
Doha,OTHH,QAT,51.60837778,TRUE,Hamad Intl,Qatar,FALSE,25.27456389,276,-44.91017964,-86.93800284,12/04/2020
Minsk,UMMS,BLR,28.03083333,TRUE,Minsk-2,Belarus,FALSE,53.8825,32,-42.85714286,-92.07920792,12/04/2020
Pisa,LIRP,ITA,10.39555556,TRUE,San Giusto,Italy,FALSE,43.68277778,261,,0,12/04/2020
Kathmandu,VNKT,NPL,85.357925,TRUE,Tribhuvan Intl,Nepal,FALSE,27.69715833,323,,0,12/04/2020
Jackson,KJAC,USA,-110.73775,FALSE,Jackson Hole,USA,FALSE,43.60733333,1,0,0,12/04/2020
Des Moines,KDSM,USA,-93.66308333,FALSE,Des Moines Intl,USA,FALSE,41.53397222,3,,0,12/04/2020
Porto,LPPR,PRT,-8.678055556,FALSE,Francisco Sa Carneiro,Portugal,FALSE,41.23555556,1,-80,-99.87195903,12/04/2020
Male,VRMM,MDV,73.52916667,FALSE,Ibrahim Nasir Intl,Maldives,FALSE,4.191666667,2,-50,-99.10714286,12/04/2020
Resistencia,SARE,ARG,-59.05611111,FALSE,Resistencia,Argentina,FALSE,-27.45,4,,0,12/04/2020
Johor Bahru,WMKJ,MYS,103.6702778,FALSE,Senai Intl,Malaysia,FALSE,1.640555556,1,0,-97.6744186,12/04/2020
Atlanta,KATL,USA,-84.42786389,TRUE,Hartsfield - Jackson Atlanta Intl,USA,FALSE,33.63669722,66,-46.77419355,-90.87136929,12/04/2020
Birmingham,EGBB,GBR,-1.748027778,FALSE,Birmingham,UK,FALSE,52.45385556,3,-87.5,-99.5620438,12/04/2020
Seattle,KSEA,USA,-122.3117778,TRUE,Seattle-Tacoma Intl,USA,FALSE,47.44988889,69,-44.35483871,-84.45945946,12/04/2020
Maiquetia,SVMI,VEN,-66.99122222,FALSE,Simon Bolivar Intl,Venezuela,FALSE,10.60119444,4,0,-93.10344828,12/04/2020
Port Of Spain,TTPP,TTO,-61.33722222,TRUE,Piarco Intl,Trinidad,TRUE,10.59527778,12,-42.85714286,-96.43916914,12/04/2020
Toronto,CYYZ,CAN,-79.63064167,TRUE,Lester B Pearson Intl,Canada,FALSE,43.67666111,200,-40.65281899,-91.52542373,12/04/2020
Wroclaw,EPWR,POL,16.88583333,TRUE,Strachowice,Poland,FALSE,51.10277778,171,,0,12/04/2020
Erbil,ORER,IRQ,43.94666667,FALSE,Erbil Intl,Iraq,TRUE,36.23805556,2,0,-97.77777778,12/04/2020
Camaguey,MUCM,CUB,-77.8475,TRUE,Ignacio Agramonte Intl,Cuba,FALSE,21.42027778,23,,0,12/04/2020
St Georges,TGPY,GRD,-61.78619167,FALSE,Maurice Bishop Intl,Grenada,FALSE,12.00424722,2,-50,-96.92307692,12/04/2020
Sanya,ZJSY,CHN,109.4133333,TRUE,Phoenix Intl,China,FALSE,18.30166667,59,,0,12/04/2020
Dnipropetrovs'k,UKDD,UKR,35.10055556,TRUE,Dnipropetrovs'k,Ukraine,FALSE,48.35722222,13,,0,12/04/2020
Weno I,PTKK,FSM,151.8430167,FALSE,Chuuk Intl,Micronesia,FALSE,7.461888889,1,0,-83.33333333,12/04/2020
Kyzylorda,UAOO,KAZ,65.59083333,FALSE,Kyzylorda,Kazakhstan,FALSE,44.70638889,4,,0,12/04/2020
Biskra,DAUB,DZA,5.741666667,FALSE,Mohamed Khider,Algeria,FALSE,34.80166667,3,,0,12/04/2020
Recife,SBRF,BRA,-34.92277778,FALSE,"Guararapes - Gilberto Freyre,  Intl",Brazil,FALSE,-8.126388889,1,0,-96.42857143,12/04/2020
Nimes,LFTW,FRA,4.416388889,TRUE,Garons,France,FALSE,43.7575,12,,0,12/04/2020
Zaragoza,LEZG,ESP,-1.041666667,FALSE,Zaragoza,Spain,FALSE,41.66611111,5,-44.44444444,-87.5,12/04/2020
Long I,MYLS,BHS,-75.26877778,FALSE,Stella Maris,Bahamas,FALSE,23.58304722,1,0,-50,12/04/2020
Erfurt-Weimar,EDDE,DEU,10.95810556,FALSE,Erfurt-Weimar,Germany,TRUE,50.97981111,7,,0,12/04/2020
Addis Abeba,HAAB,ETH,38.79939722,TRUE,Bole Intl,Ethiopia,FALSE,8.975038889,29,-60.81081081,-95.60606061,12/04/2020
Nuuk,BGGH,GRL,-51.67806389,FALSE,Nuuk,Greenland,FALSE,64.19092222,2,0,-33.33333333,12/04/2020
Key West,KEYW,USA,-81.75955556,FALSE,Key West Intl,USA,FALSE,24.55611111,3,,0,12/04/2020
Moscow,UUWW,RUS,37.27305556,FALSE,Vnukovo,Russia,FALSE,55.59916667,1,-50,-99.77375566,12/04/2020
Verona,LIPX,ITA,10.88777778,TRUE,Villafranca,Italy,FALSE,45.39638889,129,,0,12/04/2020
Podgorica,LYPG,MNE,19.25187778,TRUE,Podgorica,Montenegro,FALSE,42.35939444,66,,0,12/04/2020
Gaziantep,LTAJ,TUR,37.47888889,TRUE,Gaziantep,Turkey,FALSE,36.94777778,21,,0,12/04/2020
Puerto Vallarta,MMPR,MEX,-105.2542,TRUE,Lic Gustavo Diaz Ordaz Intl,Mexico,FALSE,20.68007222,38,-49.33333333,-71.85185185,12/04/2020
Antananarivo,FMMI,MDG,47.47608333,FALSE,Ivato,Madagascar,FALSE,-18.79652778,1,-50,-97.72727273,12/04/2020
Aktau,UATE,KAZ,51.09083333,TRUE,Aktau,Kazakhstan,FALSE,43.86,9,,0,12/04/2020
San Jose,MRPV,CRI,-84.13955833,FALSE,Tobias Bolanos Intl,Costa Rica,FALSE,9.957138889,2,100,-60,12/04/2020
Vientiane,VLVT,LAO,102.5632583,FALSE,Wattay Intl,Laos,FALSE,17.98831944,1,-80,-99.32432432,12/04/2020
Seoul,RKSS,KOR,126.7975,TRUE,Gimpo Intl,Korea,FALSE,37.55694444,192,,0,12/04/2020
La Palma,GCLA,XJE,-17.75555556,FALSE,La Palma,Canary Is,FALSE,28.62638889,1,0,-95.65217391,12/04/2020
Columbia,KCAE,USA,-81.11953889,FALSE,Columbia Metro,USA,FALSE,33.93883889,3,,0,12/04/2020
Fargo,KFAR,USA,-96.81576389,FALSE,Hector Intl,USA,FALSE,46.92065,2,0,-50,12/04/2020
Bishkek,UCFM,KGZ,74.47750833,FALSE,Manas,Kyrgyzstan,FALSE,43.06127222,2,-60,-97.89473684,12/04/2020
Treviso,LIPH,ITA,12.19777778,TRUE,S.Angelo,Italy,FALSE,45.65083333,113,,0,12/04/2020
Chita,UIAA,RUS,113.305,FALSE,Kadala,Russia,FALSE,52.02611111,3,,0,12/04/2020
Saarbrucken,EDDR,DEU,7.109508333,FALSE,Saarbrucken,Germany,TRUE,49.21455278,1,0,-96.15384615,12/04/2020
Stuttgart,EDDS,DEU,9.221963889,TRUE,Stuttgart,Germany,FALSE,48.68987778,15,0,-97.99465241,12/04/2020
Southend,EGMC,GBR,0.693333333,FALSE,Southend,UK,FALSE,51.57027778,2,0,-98.69281046,12/04/2020
Pescara,LIBP,ITA,14.18722222,TRUE,Pescara,Italy,FALSE,42.43722222,24,,0,12/04/2020
Changsha,ZGHA,CHN,113.2183333,FALSE,Huanghua,China,FALSE,28.19,1,-50,-99.34210526,12/04/2020
Shenyang,ZYTX,CHN,123.485,FALSE,Taoxian,China,FALSE,41.64166667,2,-33.33333333,-97.89473684,12/04/2020
Begishevo,UWKE,RUS,52.0925,FALSE,Begishevo,Russia,FALSE,55.56472222,6,,0,12/04/2020
Cabo San Lucas,MMSL,MEX,-109.938325,FALSE,Cabo San Lucas Intl,Mexico,FALSE,22.94825833,4,-33.33333333,-88.88888889,12/04/2020
Luxembourg,ELLX,LUX,6.204444444,TRUE,Luxembourg,Luxembourg,FALSE,49.62333333,52,0,-91.36212625,12/04/2020
Strasbourg,LFST,FRA,7.634444444,TRUE,Entzheim,France,FALSE,48.54194444,48,,0,12/04/2020
Sulaymaniyah,ORSU,IRQ,45.31444444,TRUE,Sulaymaniyah Intl,Iraq,TRUE,35.56055556,21,,0,12/04/2020
Madinah,OEMA,SAU,39.70583333,TRUE,Pr Mohammad Bin Abdulaziz Intl,Saudi Arabia,FALSE,24.55027778,113,,0,12/04/2020
Cheongju,RKTU,KOR,127.4991667,TRUE,Cheongju Intl,Korea,FALSE,36.71638889,32,,0,12/04/2020
Valencia,SVVA,VEN,-67.923,FALSE,Arturo Michelena Intl,Venezuela,FALSE,10.15,7,,0,12/04/2020
Taiyuan,ZBYN,CHN,112.63,TRUE,Wusu,China,FALSE,37.74833333,11,,0,12/04/2020
Cozumel,MMCZ,MEX,-86.92927778,FALSE,Cozumel Intl,Mexico,FALSE,20.52206389,6,0,-66.66666667,12/04/2020
Nassau,MYNN,BHS,-77.46623056,TRUE,Lynden Pindling Intl,Bahamas,FALSE,25.03895833,30,-6.25,-92.24806202,12/04/2020
Auckland,NZAA,NZL,174.7916667,TRUE,Auckland Intl,New Zealand,FALSE,-37.00805556,69,-6.756756757,-86.83206107,12/04/2020
Moscow,UUEE,RUS,37.41305556,TRUE,Sheremetyevo,Russia,FALSE,55.9725,17,-58.53658537,-99.0368272,12/04/2020
Perpignan,LFMP,FRA,2.869722222,FALSE,Rivesaltes,France,FALSE,42.74083333,1,0,-91.66666667,12/04/2020
Isla De Vieques,TJVQ,PRI,-65.49361667,FALSE,Antonio Rivera Rodriguez,Puerto Rico,FALSE,18.13481111,1,,0,12/04/2020
Durango,MMDO,MEX,-104.5274611,FALSE,Durango Intl,Mexico,FALSE,24.12603333,4,-66.66666667,-73.33333333,12/04/2020
Tampico,MMTM,MEX,-97.86441389,FALSE,Gen Francisco Javier Mina Intl,Mexico,FALSE,22.28981944,3,0,-62.5,12/04/2020
Poitiers,LFBI,FRA,0.306666667,FALSE,Biard,France,FALSE,46.5875,3,,0,12/04/2020
Clermont-Ferrand/Auvergne,LFLC,FRA,3.1625,TRUE,Clermont-Ferrand/Auvergne,France,FALSE,45.78611111,11,,0,12/04/2020
Tampere,EFTP,FIN,23.58777778,TRUE,Pirkkala,Finland,FALSE,61.41527778,27,,0,12/04/2020
Puebla,MMPB,MEX,-98.3715,FALSE,Hermanos Serdan Intl,Mexico,FALSE,19.15813611,1,-66.66666667,-90.90909091,12/04/2020
Sao Tome,FPST,STP,6.713055556,TRUE,Sao Tome Intl,Sao Tome & Principe,FALSE,0.377777778,10,,0,12/04/2020
Kazan,UWKD,RUS,49.28027778,TRUE,Kazan,Russia,FALSE,55.60694444,46,,0,12/04/2020
Bimini I,MYBS,BHS,-79.26513611,FALSE,South Bimini,Bahamas,FALSE,25.69997778,1,0,-96.77419355,12/04/2020
Geneva,LSGG,CHE,6.109444444,TRUE,Geneva,Switzerland,FALSE,46.23833333,23,-43.90243902,-98.21843532,12/04/2020
Rarotonga I,NCRG,COK,-159.79495,FALSE,Rarotonga Intl,Cook Is,FALSE,-21.200875,1,0,-95.23809524,12/04/2020
Wilmington,KILM,USA,-77.90288889,FALSE,Wilmington Intl,USA,FALSE,34.27113889,2,100,0,12/04/2020
Porto Santo,LPPS,PRT,-16.34972222,FALSE,Porto Santo,Portugal,FALSE,33.07083333,1,,0,12/04/2020
Dammam,OEDF,SAU,49.79777778,FALSE,King Fahd Intl,Saudi Arabia,FALSE,26.47111111,1,0,-99.669967,12/04/2020
Kilimanjaro,HTKJ,TZA,37.07446111,TRUE,Kilimanjaro Intl,Tanzania,FALSE,-3.429405556,19,,0,12/04/2020
Tianjin,ZBTJ,CHN,117.345,FALSE,Binhai,China,FALSE,39.12333333,4,0,-97.81420765,12/04/2020
Isla De Pascua,SCIP,XJP,-109.4216667,FALSE,Mataveri Intl,Easter Island,FALSE,-27.16472222,1,0,-92.30769231,12/04/2020
Tampa,KTPA,USA,-82.53325,FALSE,Tampa Intl,USA,FALSE,27.97547222,6,-62.5,-93.5483871,12/04/2020
Petropavlovsk-Kamchatsky,UHPP,RUS,158.4536111,FALSE,Yelizovo,Russia,FALSE,53.17027778,1,,0,12/04/2020
Ho Chi Minh,VVTS,VNM,106.6608333,TRUE,Tan Son Nhat Intl,Vietnam,FALSE,10.82055556,57,-36.66666667,-93.91025641,12/04/2020
Aarhus,EKAH,DNK,10.61900833,TRUE,Aarhus,Denmark,FALSE,56.30001667,34,,0,12/04/2020
Grand Island,KGRI,USA,-98.30963889,FALSE,Central Nebraska Regl,USA,FALSE,40.96754167,1,,0,12/04/2020
Little Rock,KLIT,USA,-92.22477778,FALSE,Bill & Hillary Clinton Natl/Adams,USA,FALSE,34.72944444,2,,0,12/04/2020
San Luis Obispo,KSBP,USA,-120.6426111,FALSE,San Luis Obispo Co Regl,USA,FALSE,35.23727778,1,,0,12/04/2020
Chisinau,LUKK,MDA,28.93092778,TRUE,Chisinau Intl,Moldova,FALSE,46.92779444,150,,0,12/04/2020
Lima-Callao,SPJC,PER,-77.11431667,TRUE,Jorge Chavez Intl,Peru,FALSE,-12.02188611,23,-47.72727273,-96.75141243,12/04/2020
Seattle,KBFI,USA,-122.3019722,TRUE,Boeing Field/King Co Intl,USA,FALSE,47.53,19,,0,12/04/2020
Monastir,DTMB,TUN,10.75472222,TRUE,Habib Bourguiba,Tunisia,FALSE,35.75805556,74,,0,12/04/2020
Volgograd,URWW,RUS,44.34555556,FALSE,Gumrak,Russia,FALSE,48.7825,2,,0,12/04/2020
Madeira,LPMA,PRT,-16.77805556,TRUE,Madeira,Portugal,FALSE,32.69416667,83,,0,12/04/2020
Stockholm,ESSA,SWE,17.91861111,TRUE,Arlanda,Sweden,FALSE,59.65194444,50,-52.38095238,-96.70836076,12/04/2020
Istanbul,LTFJ,TUR,29.30916667,FALSE,Sabiha Gokcen,Turkey,FALSE,40.89833333,5,0,-99.47807933,12/04/2020
Osh,UCFO,KGZ,72.79321389,TRUE,Osh,Kyrgyzstan,FALSE,40.60899722,46,,0,12/04/2020
Tivat,LYTV,MNE,18.72328611,TRUE,Tivat,Montenegro,FALSE,42.40466389,53,,0,12/04/2020
Bucaramanga,SKBG,COL,-73.18476111,FALSE,Palonegro,Colombia,FALSE,7.126619444,4,,0,12/04/2020
Alicante,LEAL,ESP,-0.558055556,FALSE,Alicante-Elche,Spain,FALSE,38.28222222,1,-87.5,-99.8853211,12/04/2020
Bremen,EDDW,DEU,8.786747222,FALSE,Bremen,Germany,FALSE,53.0474,1,0,-99.21259843,12/04/2020
Kosice,LZKZ,SVK,21.24111111,TRUE,Kosice,Slovakia,FALSE,48.66305556,40,,0,12/04/2020
Portland,KPWM,USA,-70.30861389,FALSE,Portland Intl,USA,FALSE,43.64564167,1,0,-75,12/04/2020
Dubrovnik,LDDU,HRV,18.26824444,TRUE,Cilipi,Croatia,FALSE,42.56135278,194,,0,12/04/2020
Douala,FKKD,CMR,9.708333333,FALSE,Douala,Cameroon,FALSE,4.011666667,2,0,-95.34883721,12/04/2020
Port Gentil,FOOG,GAB,8.751361111,FALSE,Port Gentil,Gabon,FALSE,-0.719277778,2,,0,12/04/2020
Cayenne,SOCA,GUF,-52.36194444,FALSE,Felix Eboue,French Guiana,FALSE,4.819722222,2,-33.33333333,-91.30434783,12/04/2020
Kano,DNKN,NGA,8.523611111,TRUE,Mallam Aminu Kano,Nigeria,FALSE,12.04805556,8,,0,12/04/2020
Cochin,VOCI,IND,76.40694444,TRUE,Cochin Intl,India,FALSE,10.15388889,244,,0,12/04/2020
Essaouira,GMMI,MAR,-9.683055556,FALSE,Mogador Intl,Morocco,FALSE,31.39916667,5,,0,12/04/2020
Panama City,MPMG,PAN,-79.55555556,FALSE,Marcos A Gelabert Intl,Panama,FALSE,8.973333333,1,0,-85.71428571,12/04/2020
Augusta,KAGS,USA,-81.9645,FALSE,Augusta Regl At Bush,USA,FALSE,33.36994444,1,0,0,12/04/2020
Cairo,HECA,EGY,31.41388889,TRUE,Cairo Intl,Egypt,FALSE,30.11138889,25,-28.57142857,-97.47219414,12/04/2020
Chlef,DAOI,DZA,1.34,FALSE,Chlef,Algeria,FALSE,36.21694444,4,,0,12/04/2020
Sal,GVAC,CPV,-22.95001667,TRUE,Amilcar Cabral,Cape Verde,FALSE,16.73758889,53,,0,12/04/2020
Suhag,HESG,EGY,31.74277778,TRUE,Suhag Intl,Egypt,FALSE,26.34277778,35,,0,12/04/2020
Cleveland,KCLE,USA,-81.85469444,TRUE,Cleveland-Hopkins Intl,USA,FALSE,41.40941667,35,,0,12/04/2020
Setif,DAAS,DZA,5.33,TRUE,8 Mai 45,Algeria,FALSE,36.17861111,8,,0,12/04/2020
Fresno,KFAT,USA,-119.7188333,FALSE,Fresno Yosemite Intl,USA,FALSE,36.77655556,1,-87.5,-92.85714286,12/04/2020
Venice,LIPZ,ITA,12.35194444,TRUE,Tessera,Italy,FALSE,45.50527778,705,,0,12/04/2020
Mombasa,HKMO,KEN,39.59906389,TRUE,Moi Intl,Kenya,FALSE,-4.026277778,27,,0,12/04/2020
L'Viv,UKLL,UKR,23.95833333,TRUE,L'Viv,Ukraine,FALSE,49.80972222,112,,0,12/04/2020
Arequipa,SPQU,PER,-71.57080278,FALSE,Rodriguez Ballon,Peru,FALSE,-16.34057778,2,,0,12/04/2020
Calicut,VOCL,IND,75.95055556,TRUE,Calicut,India,FALSE,11.13777778,177,,0,12/04/2020
Odesa,UKOO,UKR,30.67638889,TRUE,Odesa,Ukraine,FALSE,46.42666667,56,,0,12/04/2020
Dole,LFGJ,FRA,5.435,FALSE,Tavaux,France,FALSE,47.04277778,6,,0,12/04/2020
Buenos Aires,SABE,ARG,-58.41638889,TRUE,Jorge Newbery Aeroparque,Argentina,FALSE,-34.55888889,35,,0,12/04/2020
Cuernavaca,MMCB,MEX,-99.26159167,FALSE,Gen Mariano Matamoros,Mexico,FALSE,18.83450833,1,,0,12/04/2020
Culiacan,MMCL,MEX,-107.47515,FALSE,Culiacan Intl,Mexico,FALSE,24.76505833,1,0,0,12/04/2020
Charleroi,EBCI,BEL,4.452777778,TRUE,Brussels South,Belgium,FALSE,50.46,447,,0,12/04/2020
Bastia,LFKB,FRA,9.484722222,TRUE,Poretta,France,FALSE,42.55,18,,0,12/04/2020
Lanseria,FALA,ZAF,27.925575,FALSE,Lanseria Intl,South African Rep,FALSE,-25.93969167,1,,0,12/04/2020
Glasgow,EGPF,GBR,-4.433055556,FALSE,Glasgow,UK,FALSE,55.87194444,3,-50,-99.10447761,12/04/2020
Amsterdam,EHAM,NLD,4.764166667,TRUE,Schiphol,Netherlands,FALSE,52.30805556,260,-42.73127753,-95.32542251,12/04/2020
Djibouti,HDAM,DJI,43.15944444,FALSE,Ambouli,Djibouti,FALSE,11.54722222,2,0,-93.93939394,12/04/2020
Sydney,YSSY,AUS,151.1772222,TRUE,Kingsford Smith Intl,Australia,FALSE,-33.94611111,149,-25.87064677,-80.57366362,12/04/2020
Vladikavkaz,URMO,RUS,44.60666667,FALSE,Beslan,Russia,FALSE,43.20527778,2,,0,12/04/2020
Tlemcen,DAON,DZA,-1.450833333,FALSE,Zenata-Messali El Hadj,Algeria,FALSE,35.01527778,7,,0,12/04/2020
Christmas I,YPXM,AUS,105.6902778,FALSE,Christmas I,Australia,FALSE,-10.45055556,1,,0,12/04/2020
Karlsruhe/Baden-Baden,EDSB,DEU,8.0805,TRUE,Karlsruhe/Baden-Baden,Germany,FALSE,48.77935278,82,,0,12/04/2020
Babelthuap I,PTRO,PLW,134.544275,FALSE,Babelthuap/Koror,Palau,FALSE,7.367302778,1,0,-94.44444444,12/04/2020
Stockholm,ESKN,SWE,16.90361111,FALSE,Skavsta,Sweden,FALSE,58.78861111,5,66.66666667,-96.26865672,12/04/2020
Santa Ana,KSNA,USA,-117.8682222,FALSE,John Wayne-Orange Co,USA,FALSE,33.67566667,2,0,-92.85714286,12/04/2020
Taraz,UADD,KAZ,71.30277778,FALSE,Aulie-Ata,Kazakhstan,FALSE,42.85416667,1,,0,12/04/2020
Bismarck,KBIS,USA,-100.74575,FALSE,Bismarck Mun,USA,FALSE,46.77272222,1,,0,12/04/2020
Ufa,UWUU,RUS,55.87388889,TRUE,Ufa,Russia,FALSE,54.55777778,33,,0,12/04/2020
Granada,LEGR,ESP,-3.777222222,TRUE,Federico Garcia Lorca,Spain,FALSE,37.18861111,26,,0,12/04/2020
Columbus,KLCK,USA,-82.92780556,FALSE,Rickenbacker Intl,USA,FALSE,39.81377778,2,-50,-71.42857143,12/04/2020
Milas,LTFE,TUR,27.68138889,TRUE,Bodrum,Turkey,FALSE,37.24722222,92,,0,12/04/2020
Peoria,KPIA,USA,-89.69325,FALSE,Gen Downing-Peoria Intl,USA,FALSE,40.66419444,1,,0,12/04/2020
Baton Rouge,KBTR,USA,-91.14988889,FALSE,Baton Rouge Metro-Ryan,USA,FALSE,30.53291667,1,,0,12/04/2020
Dinard,LFRD,FRA,-2.08,FALSE,Pleurtuit-St Malo,France,FALSE,48.58777778,4,,0,12/04/2020
Knoxville,KTYS,USA,-83.99531944,FALSE,Mc Ghee Tyson,USA,FALSE,35.80937222,3,,0,12/04/2020
Kerry,EIKY,IRL,-9.523888889,TRUE,Kerry,Ireland,FALSE,52.18083333,21,,0,12/04/2020
Myrtle Beach,KMYR,USA,-78.92833333,FALSE,Myrtle Beach Intl,USA,FALSE,33.67975,1,0,-75,12/04/2020
Laage,ETNL,DEU,12.27933333,FALSE,Rostock-Laage,Germany,FALSE,53.91816667,5,,0,12/04/2020
Biarritz,LFBZ,FRA,-1.531111111,TRUE,Bayonne-Anglet,France,FALSE,43.46833333,16,,0,12/04/2020
Melilla,GEML,XJF,-2.956388889,TRUE,Melilla,Melilla,TRUE,35.27972222,47,,0,12/04/2020
Yap I,PTYA,FSM,138.0824833,FALSE,Yap Intl,Micronesia,FALSE,9.498911111,1,0,-66.66666667,12/04/2020
Fuerteventura,GCFV,XJE,-13.86388889,FALSE,Fuerteventura,Canary Is,FALSE,28.45277778,1,0,-99.50248756,12/04/2020
Eldoret,HKEL,KEN,35.23671389,FALSE,Eldoret Intl,Kenya,FALSE,0.404011111,1,0,0,12/04/2020
Charlotte,KCLT,USA,-80.94906667,TRUE,Charlotte/Douglas Intl,USA,FALSE,35.21373889,17,-51.42857143,-92.01877934,12/04/2020
Sfax,DTTX,TUN,10.68861111,FALSE,Thyna,Tunisia,FALSE,34.72055556,7,,0,12/04/2020
Cairns,YBCS,AUS,145.7552778,FALSE,Cairns Intl,Australia,FALSE,-16.88583333,4,-42.85714286,-92.98245614,12/04/2020
Los Mochis,MMLM,MEX,-109.0812,FALSE,Valle Del Fuerte International,Mexico,FALSE,25.68608889,2,,0,12/04/2020
Istanbul,LTBA,TUR,28.81416667,TRUE,Ataturk,Turkey,FALSE,40.97611111,45,-26.2295082,136.8421053,12/04/2020
Tehran,OIIE,IRN,51.15222222,TRUE,Imam Khomaini Intl,Iran,FALSE,35.41611111,10,-50,-95.55555556,12/04/2020
Amman,OJAI,JOR,35.99321389,FALSE,Queen Alia Intl,Jordan,FALSE,31.72255556,7,-30,-98.86178862,12/04/2020
St Kitts I.,TKPK,KNA,-62.71868611,TRUE,Bradshaw Intl,St Kitts And Nevis,FALSE,17.31118056,10,0,-81.48148148,12/04/2020
Ohrid,LWOH,MKD,20.74232778,FALSE,St Paul the Apostle,"Macedonia, F Y R",FALSE,41.17992222,6,,0,12/04/2020
Kota Kinabalu,WBKK,MYS,116.0530556,TRUE,Kota Kinabalu,Malaysia,FALSE,5.944722222,202,,0,12/04/2020
San Andres,SKSP,COL,-81.71133889,TRUE,Gustavo Rojas Pinilla,Colombia,FALSE,12.58366111,8,,0,12/04/2020
Yerevan,UDYZ,ARM,44.39583333,FALSE,Zvartnots,Armenia,FALSE,40.14722222,1,-83.33333333,-99.47643979,12/04/2020
Niigata,RJSN,JPN,139.1116667,TRUE,Niigata,Japan,FALSE,37.95583333,10,,0,12/04/2020
Balboa,MPPA,PAN,-79.59958333,FALSE,Panama Pacifico,Panama,FALSE,8.914833333,1,0,0,12/04/2020
Zakinthos,LGZA,GRC,20.88416667,TRUE,Dionisios Solomos,Greece,FALSE,37.75111111,35,,0,12/04/2020
Cotonou,DBBB,BEN,2.38335,FALSE,Cadjehoun Intl,Benin,FALSE,6.356380556,1,-66.66666667,-98.21428571,12/04/2020
Townsville,YBTL,AUS,146.7652778,FALSE,Townsville Intl,Australia,FALSE,-19.2525,1,,0,12/04/2020
Raleigh/Durham,KRDU,USA,-78.78747222,FALSE,Raleigh-Durham Intl,USA,FALSE,35.87763889,1,0,-97.87234043,12/04/2020
Spokane,KGEG,USA,-117.5352222,FALSE,Spokane Intl,USA,FALSE,47.61902778,5,,0,12/04/2020
Dortmund,EDLW,DEU,7.612241667,FALSE,Dortmund,Germany,FALSE,51.51831389,6,50,-93.10344828,12/04/2020
Buenos Aires,SAEZ,ARG,-58.53583333,TRUE,Ezeiza Intl Ministro Pistarini,Argentina,FALSE,-34.82222222,17,-19.04761905,-97.09401709,12/04/2020
Calvi,LFKC,FRA,8.793055556,FALSE,St Catherine,France,FALSE,42.52444444,2,,0,12/04/2020
London,EGGW,GBR,-0.368333333,TRUE,Luton,UK,FALSE,51.87472222,24,-66.1971831,-97.81021898,12/04/2020
Orenburg,UWOO,RUS,55.45666667,FALSE,Orenburg,Russia,FALSE,51.79583333,3,,0,12/04/2020
Everett,KPAE,USA,-122.2815833,FALSE,Snohomish Co,USA,FALSE,47.907,1,0,-66.66666667,12/04/2020
Guaymas,MMGM,MEX,-110.9237167,FALSE,Gen Jose Ma Yanez Intl,Mexico,FALSE,27.96932222,2,100,-75,12/04/2020
Okayama,RJOB,JPN,133.8552778,TRUE,Okayama,Japan,FALSE,34.75694444,24,,0,12/04/2020
Olbia,LIEO,ITA,9.517777778,TRUE,Costa Smeralda,Italy,FALSE,40.89861111,103,,0,12/04/2020
Shymkent,UAII,KAZ,69.47555556,FALSE,Shymkent,Kazakhstan,FALSE,42.365,7,,0,12/04/2020
Kayseri,LTAU,TUR,35.49527778,TRUE,Kayseri,Turkey,FALSE,38.77027778,21,,0,12/04/2020
Amman,OJAM,JOR,35.99156944,FALSE,Marka Intl,Jordan,FALSE,31.97270278,1,,0,12/04/2020
Munich,EDDM,DEU,11.78608611,TRUE,Munich,Germany,FALSE,48.35378333,27,-57.14285714,-99.09274194,12/04/2020
Hiroshima,RJOA,JPN,132.9194444,TRUE,Hiroshima,Japan,FALSE,34.43611111,28,,0,12/04/2020
Dire Dawa,HADR,ETH,41.84888611,FALSE,Dire Dawa Intl,Ethiopia,FALSE,9.637786111,5,,0,12/04/2020
Riga,EVRA,LVA,23.97111111,TRUE,Riga,Latvia,FALSE,56.92361111,759,,0,12/04/2020
Bilbao,LEBB,ESP,-2.910555556,FALSE,Bilbao,Spain,FALSE,43.30111111,3,-25,-98.828125,12/04/2020
Paris,LFPB,FRA,2.441388889,FALSE,Le Bourget,France,FALSE,48.96944444,3,0,-86.95652174,12/04/2020
St John's,CYYT,CAN,-52.75241944,FALSE,St John's Intl,Canada,FALSE,47.61861944,4,100,-71.42857143,12/04/2020
Yakutsk,UEEE,RUS,129.7733333,FALSE,Yakutsk,Russia,FALSE,62.09333333,2,,0,12/04/2020
Rotterdam,EHRD,NLD,4.437222222,FALSE,Rotterdam,Netherlands,FALSE,51.95694444,1,0,-99.42857143,12/04/2020
Yangon,VYYY,MMR,96.13323889,TRUE,Yangon Intl,Myanmar,FALSE,16.90726667,9,-50,-97.39884393,12/04/2020
Dhaka,VGHS,BGD,90.39778333,FALSE,Hazrat Shahjalal Intl,Bangladesh,FALSE,23.84334722,5,-16.66666667,-98.64130435,12/04/2020
Nashville,KBNA,USA,-86.67816667,FALSE,Nashville Intl,USA,FALSE,36.12447222,1,0,-97.61904762,12/04/2020
Dalian,ZYTL,CHN,121.54,FALSE,Zhoushuizi,China,FALSE,38.96666667,1,-85.71428571,-99.30555556,12/04/2020
San Francisco,KSFO,USA,-122.3754167,TRUE,San Francisco Intl,USA,FALSE,37.61880556,66,-43.58974359,-91.51670951,12/04/2020
Green Bay,KGRB,USA,-88.12972222,FALSE,Austin Straubel Intl,USA,FALSE,44.48463889,2,,0,12/04/2020
Baku,UBBB,AZE,50.05138889,TRUE,Heydar Aliyev Intl,Azerbaijan,FALSE,40.46972222,10,-23.07692308,-96.28252788,12/04/2020
Goteborg,ESGG,SWE,12.29111111,FALSE,Landvetter,Sweden,FALSE,57.66,4,-50,-98.96103896,12/04/2020
Leeds Bradford,EGNM,GBR,-1.660769444,FALSE,Leeds Bradford,UK,FALSE,53.866025,1,0,-99.62686567,12/04/2020
Burgas,LBBG,BGR,27.51527778,TRUE,Burgas,Bulgaria,FALSE,42.57027778,23,,0,12/04/2020
Malmo,ESMS,SWE,13.35333333,FALSE,Malmo,Sweden,FALSE,55.54833333,5,25,-88.88888889,12/04/2020
Alghero,LIEA,ITA,8.288611111,TRUE,Fertilia,Italy,FALSE,40.63111111,22,,0,12/04/2020
Torreon,MMTC,MEX,-103.4106694,FALSE,Torreon Intl,Mexico,FALSE,25.56828889,6,-25,-62.5,12/04/2020
Hangzhou,ZSHC,CHN,120.4333333,FALSE,Xiaoshan,China,FALSE,30.22833333,6,-33.33333333,-97.86476868,12/04/2020
Abaco I,MYAM,BHS,-77.08511944,FALSE,Marsh Harbour Intl,Bahamas,FALSE,26.51012778,6,20,-86.66666667,12/04/2020
Aktobe,UATT,KAZ,57.20666667,FALSE,Aktobe,Kazakhstan,FALSE,50.24583333,7,,0,12/04/2020
Chicago,KMDW,USA,-87.752425,TRUE,Chicago Midway Intl,USA,FALSE,41.78598333,16,0,-83.67346939,12/04/2020
Nadi,NFFN,FJI,177.4436111,FALSE,Nadi Intl,Fiji Is,FALSE,-17.75638889,6,20,-95.62043796,12/04/2020
Songkhla,VTSS,THA,100.395,TRUE,Hat Yai Intl,Thailand,FALSE,6.932777778,17,,0,12/04/2020
Bern,LSZB,CHE,7.499166667,FALSE,Belp,Switzerland,FALSE,46.91222222,1,,0,12/04/2020
Martinique,TFFF,MTQ,-60.99638889,FALSE,Aime Cesaire,Martinique,FALSE,14.59222222,6,-25,-90.625,12/04/2020
Memphis,KMEM,USA,-89.97666667,TRUE,Memphis Intl,USA,FALSE,35.04241667,102,-25,-32.45033113,12/04/2020
Vitoria,LEVT,ESP,-2.724444444,FALSE,Vitoria,Spain,FALSE,42.88277778,7,,0,12/04/2020
Bologna,LIPE,ITA,11.29694444,TRUE,Borgo Panigale,Italy,FALSE,44.53083333,528,,0,12/04/2020
Cochabamba,SLCB,BOL,-66.17722222,FALSE,Jorge Wilstermann Intl,Bolivia,FALSE,-17.41833333,1,,0,12/04/2020
Paris,LFPG,FRA,2.547777778,TRUE,Charles-De-Gaulle,France,FALSE,49.00972222,152,-34.48275862,-96.22828784,12/04/2020
Ljubljana,LJLJ,SVN,14.45611111,TRUE,Brnik,Slovenia,FALSE,46.22444444,59,,0,12/04/2020
Budapest,LHBP,HUN,19.26194444,TRUE,Liszt Ferenc Intl,Hungary,FALSE,47.43944444,33,-23.25581395,-96.39737991,12/04/2020
New York,KLGA,USA,-73.87261111,TRUE,LaGuardia,USA,FALSE,40.77725,14,0,-94.75655431,12/04/2020
Karpathos,LGKP,GRC,27.14583333,FALSE,Karpathos,Greece,FALSE,35.42111111,1,,0,12/04/2020
Tenerife-South,GCTS,XJE,-16.5725,FALSE,Reina Sofia,Canary Is,FALSE,28.04444444,3,-40,-99.4,12/04/2020
Kupang,WATT,IDN,123.6638889,FALSE,El Tari,Indonesia,FALSE,-10.17777778,3,,0,12/04/2020
Mugla,LTBS,TUR,28.79138889,TRUE,Dalaman,Turkey,FALSE,36.7125,197,,0,12/04/2020
Innsbruck,LOWI,AUT,11.34388889,TRUE,Innsbruck,Austria,FALSE,47.26027778,33,,0,12/04/2020
Baltimore,KBWI,USA,-76.66899167,TRUE,Baltimore/Washington Intl Thurgood Marshall,USA,FALSE,39.175725,9,-50,-90.72164948,12/04/2020
Naha,ROAH,JPN,127.6458333,FALSE,Naha,Japan,FALSE,26.19583333,3,0,-98.60465116,12/04/2020
Suceava,LRSV,ROU,26.35444444,TRUE,Stefan cel Mare,Romania,FALSE,47.68638889,12,,0,12/04/2020
Brisbane,YBBN,AUS,153.1175,TRUE,Brisbane Intl,Australia,FALSE,-27.38416667,30,7.142857143,-90.99099099,12/04/2020
San Antonio,KSAT,USA,-98.46905556,TRUE,San Antonio Intl,USA,FALSE,29.53395556,8,-11.11111111,-86.8852459,12/04/2020
Quebec,CYQB,CAN,-71.39331111,FALSE,Jean Lesage Intl,Canada,FALSE,46.79119444,3,0,-96.25,12/04/2020
Saltillo,MMIO,MEX,-100.9283528,FALSE,Plan De Guadalupe Intl,Mexico,FALSE,25.54978611,2,0,-83.33333333,12/04/2020
Thiruvananthapuram,VOTV,IND,76.92,TRUE,Thiruvananthapuram,India,FALSE,8.479444444,135,,0,12/04/2020
Gander,CYQX,CAN,-54.56813611,FALSE,Gander Intl,Canada,FALSE,48.93701944,2,0,-75,12/04/2020
Sofia,LBSF,BGR,23.40833333,TRUE,Sofia,Bulgaria,FALSE,42.695,37,-30.18867925,-91.08433735,12/04/2020
Halifax,CYHZ,CAN,-63.51019167,TRUE,Stanfield Intl,Canada,FALSE,44.87968056,8,-66.66666667,-91.01123596,12/04/2020
Florianopolis,SBFL,BRA,-48.5525,FALSE,Hercilio Luz Intl,Brazil,FALSE,-27.67027778,6,,0,12/04/2020
Rayong,VTBU,THA,101.0049167,FALSE,U-Tapao Rayong Pattaya Intl,Thailand,FALSE,12.67961111,1,0,-95.83333333,12/04/2020
Karachi,OPKC,PAK,67.16276111,FALSE,Jinnah Intl,Pakistan,FALSE,24.90855833,1,-80,-99.45945946,12/04/2020
Harbin,ZYHB,CHN,126.2516667,FALSE,Taiping,China,FALSE,45.625,1,0,-97.82608696,12/04/2020
Basle-Mulhouse,LFSB,FRA,7.529166667,FALSE,Basle-Mulhouse,France,FALSE,47.59,6,-40,-99.06687403,12/04/2020
Willemstad,TNCC,ANT,-68.95968889,FALSE,Hato Intl.,Neth Antilles,FALSE,12.18891389,4,-33.33333333,-96.07843137,12/04/2020
Tarawa I,NGTA,KIR,173.1462806,FALSE,Bonriki Intl,Kiribati,FALSE,1.381158333,1,0,-85.71428571,12/04/2020
Makassar,WAAA,IDN,119.5544444,TRUE,Sultan Hasanuddin,Indonesia,FALSE,-5.060833333,17,,0,12/04/2020
Honolulu,PHNL,USA,-157.9202611,TRUE,Honolulu Intl,USA,FALSE,21.317825,44,-29.03225806,-83.7037037,12/04/2020
San Jose Del Cabo,MMSD,MEX,-109.7207417,TRUE,Los Cabos Intl,Mexico,FALSE,23.152075,40,-45.94594595,-83.47107438,12/04/2020
Liverpool,EGGP,GBR,-2.849722222,FALSE,Liverpool,UK,FALSE,53.33361111,1,-85.71428571,-99.6031746,12/04/2020
Shanghai,ZSSS,CHN,121.335,FALSE,Hongqiao,China,FALSE,31.19666667,2,0,-98.4375,12/04/2020
Klagenfurt,LOWK,AUT,14.33722222,FALSE,Klagenfurt,Austria,FALSE,46.64277778,3,,0,12/04/2020
Ingolstadt,ETSI,DEU,11.53366667,FALSE,Manching,Germany,FALSE,48.71566667,1,,0,12/04/2020
Calgary,CYYC,CAN,-114.0133472,TRUE,Calgary Intl,Canada,FALSE,51.12261389,34,-49.25373134,-92.88702929,12/04/2020
El Paso,KELP,USA,-106.3763611,FALSE,El Paso Intl,USA,FALSE,31.80733333,4,-55.55555556,-66.66666667,12/04/2020
Humberside,EGNJ,GBR,-0.350833333,TRUE,Humberside,UK,FALSE,53.57444444,30,,0,12/04/2020
Asmara,HHAS,ERI,38.90083333,TRUE,Asmara Intl,Eritrea,FALSE,15.28416667,21,,0,12/04/2020
Krabi,VTSG,THA,98.98531389,FALSE,Krabi,Thailand,FALSE,8.100163889,2,0,-96,12/04/2020
San Salvador,MSLP,SLV,-89.05575,TRUE,"El Salvador Intl, Oscar Arnulfo Romero y Galdamez",El Salvador,TRUE,13.44093611,28,-22.22222222,-93.92624729,12/04/2020
Almeria,LEAM,ESP,-2.37,TRUE,Almeria,Spain,FALSE,36.84388889,42,,0,12/04/2020
Trieste,LIPQ,ITA,13.47222222,TRUE,Ronchi Dei Legionari,Italy,FALSE,45.8275,37,,0,12/04/2020
Szczecin,EPSC,POL,14.90222222,TRUE,Goleniow,Poland,FALSE,53.58472222,18,,0,12/04/2020
Jerez,LEJR,ESP,-6.06,FALSE,Jerez,Spain,FALSE,36.74472222,1,0,-97.77777778,12/04/2020
Helsinki,EFHK,FIN,24.96333333,TRUE,Vantaa,Finland,FALSE,60.31722222,46,-43.90243902,-96.23567921,12/04/2020
Angeles City,RPLC,PHL,120.5603222,FALSE,Diosdado Macapagal Intl,Philippines,FALSE,15.18598889,2,0,-98.16513761,12/04/2020
Rosario,SAAR,ARG,-60.78444444,TRUE,Islas Malvinas,Argentina,FALSE,-32.90361111,19,,0,12/04/2020
Bodo,ENBO,NOR,14.36527778,FALSE,Bodo,Norway,FALSE,67.26916667,3,,0,12/04/2020
Port Vila,NVVV,VUT,168.3197944,FALSE,Port Vila,Vanuatu,FALSE,-17.699325,1,0,-96.77419355,12/04/2020
Davao,RPMD,PHL,125.6457778,TRUE,Bangoy Intl,Philippines,FALSE,7.125522222,13,,0,12/04/2020
Liberia,MRLB,CRI,-85.54554444,FALSE,Daniel Oduber Quiros Intl,Costa Rica,TRUE,10.59301389,2,0,-95.91836735,12/04/2020
Salzburg,LOWS,AUT,13.00333333,FALSE,Salzburg,Austria,FALSE,47.79444444,3,0,-96.05263158,12/04/2020
Nurnberg,EDDN,DEU,11.07800833,TRUE,Nurnberg,Germany,FALSE,49.4987,275,,0,12/04/2020
Phoenix,KPHX,USA,-112.0115833,TRUE,Phoenix Sky Harbor Intl,USA,FALSE,33.43427778,30,-53.125,-80.51948052,12/04/2020
Dallas-Ft Worth,KDFW,USA,-97.03769444,TRUE,Dallas-Ft Worth Intl,USA,FALSE,32.89723056,122,-43.25581395,-82.52148997,12/04/2020
Chicago/Rockford,KRFD,USA,-89.09722222,FALSE,Chicago/Rockford Intl,USA,FALSE,42.19536111,1,,0,12/04/2020
Southampton,EGHI,GBR,-1.356666667,FALSE,Southampton,UK,FALSE,50.95027778,6,,0,12/04/2020
Santiago,LEST,ESP,-8.415277778,TRUE,Santiago,Spain,FALSE,42.89638889,75,,0,12/04/2020
Beijing,ZBAA,CHN,116.5983333,TRUE,Beijing Capital,China,FALSE,40.07333333,45,-48.86363636,-96.35332253,12/04/2020
Frankfurt-Hahn,EDFH,DEU,7.263891667,TRUE,Frankfurt-Hahn,Germany,FALSE,49.94867222,9,-25,-90.10989011,12/04/2020
Vaasa,EFVA,FIN,21.76416667,TRUE,Vaasa,Finland,FALSE,63.04527778,23,,0,12/04/2020
Muscat,OOMS,OMN,58.28179722,FALSE,Muscat Intl,Oman,FALSE,23.59285833,2,0,-99.78925184,12/04/2020
Long Beach,KLGB,USA,-118.1517306,FALSE,Long Beach/Daugherty Field,USA,FALSE,33.81775278,1,0,-50,12/04/2020
Christmas I,PLCH,KIR,-157.3496417,FALSE,Cassidy Intl,Kiribati,FALSE,1.986211111,2,,0,12/04/2020
Berlin,EDDB,DEU,13.50067222,FALSE,Schonefeld,Germany,FALSE,52.36224722,4,-66.66666667,-99.42528736,12/04/2020
Ireland West,EIKN,IRL,-8.818611111,TRUE,Knock,Ireland,TRUE,53.91027778,52,,0,12/04/2020
Austin,KAUS,USA,-97.66988889,FALSE,Austin-Bergstrom Intl,USA,FALSE,30.19452778,6,-14.28571429,-88.88888889,12/04/2020
Rzeszow,EPRZ,POL,22.01888889,TRUE,Jasionka,Poland,FALSE,50.11,38,,0,12/04/2020
Albany,KALB,USA,-73.80197222,FALSE,Albany Intl,USA,FALSE,42.74911111,1,0,0,12/04/2020
Veracruz,MMVR,MEX,-96.18736389,FALSE,Gen Heriberto Jara Intl,Mexico,FALSE,19.14578056,3,0,-70,12/04/2020
Perm,USPP,RUS,56.02138889,TRUE,Bolshoe Savino,Russia,FALSE,57.91444444,12,,0,12/04/2020
Jaipur,VIJP,IND,75.8025,FALSE,Jaipur,India,FALSE,26.82416667,1,0,-96.77419355,12/04/2020
Irkutsk,UIII,RUS,104.3947222,FALSE,Irkutsk,Russia,FALSE,52.26722222,1,-50,-97.2972973,12/04/2020
Livingstone,FLHN,ZMB,25.817075,TRUE,Harry Mwanga Nkumbula Intl,Zambia,FALSE,-17.82135833,11,,0,12/04/2020
Stockholm,ESOW,SWE,16.63361111,FALSE,Vaesteraas,Sweden,FALSE,59.58944444,7,,0,12/04/2020
Pittsburgh,KPIT,USA,-80.23269444,TRUE,Pittsburgh Intl,USA,FALSE,40.49141667,45,,0,12/04/2020
Morelia,MMMM,MEX,-101.025375,TRUE,Gen Francisco J Mujica Intl,Mexico,FALSE,19.84986944,9,-47.05882353,-75.67567568,12/04/2020
Kabul,OAKB,AFG,69.21235556,FALSE,Kabul Intl,Afghanistan,FALSE,34.56584722,1,-80,-98.48484848,12/04/2020
Maceio,SBMO,BRA,-35.78361111,FALSE,Zumbi Dos Palmares,Brazil,FALSE,-9.517222222,1,,0,12/04/2020
Salalah,OOSA,OMN,54.09129722,TRUE,Salalah,Oman,FALSE,17.03872778,28,,0,12/04/2020
San Diego,KSAN,USA,-117.1896667,TRUE,San Diego Intl,USA,FALSE,32.73355556,8,-55.55555556,-90.24390244,12/04/2020
Georgetown,SYCJ,GUY,-58.25435278,FALSE,Cheddi Jagan Intl,Guyana,FALSE,6.498927778,3,0,-94.54545455,12/04/2020
Bedford,KBED,USA,-71.289,FALSE,Hanscom,USA,FALSE,42.46994444,3,0,-85.71428571,12/04/2020
Pointe-A-Pitre,TFFR,GLP,-61.52583333,FALSE,Le Raizet,Guadeloupe,FALSE,16.26416667,6,-14.28571429,-92.20779221,12/04/2020
Seville,LEZL,ESP,-5.898888889,FALSE,Seville,Spain,FALSE,37.41805556,5,-44.44444444,-98.33887043,12/04/2020
Nador,GMMW,MAR,-3.027777778,TRUE,El Aroui Intl,Morocco,FALSE,34.98944444,50,,0,12/04/2020
Tirana,LATI,ALB,19.72055556,TRUE,Tirana,Albania,FALSE,41.41472222,127,,0,12/04/2020
Ciudad Victoria,MMCV,MEX,-98.95644444,FALSE,Gen Pedro Jose Mendez Intl,Mexico,FALSE,23.70343056,1,-66.66666667,0,12/04/2020
Pekanbaru,WIBB,IDN,101.4466667,TRUE,Sultan Syarif Kasim II,Indonesia,FALSE,0.463333333,33,,0,12/04/2020
Kalamata,LGKL,GRC,22.02527778,TRUE,Kalamata,Greece,FALSE,37.06833333,16,,0,12/04/2020
Pointe Noire,FCPP,COG,11.88627778,TRUE,Antonio Agostinho Neto,"Congo, Rep Of",FALSE,-4.814805556,16,,0,12/04/2020
Durham Tees Valley,EGNV,GBR,-1.429444444,TRUE,Durham Tees Valley,UK,FALSE,54.50916667,36,,0,12/04/2020
Manado,WAMM,IDN,124.925,TRUE,Ratulangi,Indonesia,FALSE,1.545555556,17,,0,12/04/2020
Varna,LBWN,BGR,27.82527778,TRUE,Varna,Bulgaria,FALSE,43.23194444,29,,0,12/04/2020
Brownsville,KBRO,USA,-97.42599444,FALSE,Brownsville/South Padre I Intl,USA,FALSE,25.90613333,2,-77.77777778,-91.30434783,12/04/2020
Fuzhou,ZSFZ,CHN,119.665,FALSE,Changle,China,FALSE,25.93333333,1,-50,-99.03846154,12/04/2020
Windsor Locks,KBDL,USA,-72.68336944,FALSE,Bradley Intl,USA,FALSE,41.93914444,2,-66.66666667,-95.65217391,12/04/2020
Roatan,MHRO,HND,-86.52229444,FALSE,Juan Manuel Galvez Intl,Honduras,TRUE,16.31728333,3,0,-86.36363636,12/04/2020
Chiang Rai,VTCT,THA,99.88305556,FALSE,Chiang Rai Intl,Thailand,FALSE,19.95222222,1,0,-93.75,12/04/2020
Sylt,EDXW,DEU,8.342386111,FALSE,Sylt,Germany,FALSE,54.91163611,3,,0,12/04/2020
Jersey,EGJJ,GBR,-2.195525,FALSE,Jersey,UK,FALSE,49.20795278,1,,0,12/04/2020
Mashhad,OIMM,IRN,59.645,TRUE,Shahid Hashemi Nejad Intl,Iran,FALSE,36.23416667,33,,0,12/04/2020
Bahias De Huatulco,MMBT,MEX,-96.26255278,FALSE,Bahias De Huatulco Intl,Mexico,FALSE,15.77532778,3,0,200,12/04/2020
Sandefjord,ENTO,NOR,10.25861111,TRUE,Torp,Norway,FALSE,59.18666667,103,,0,12/04/2020
Dubai,OMDB,ARE,55.36444444,TRUE,Dubai Intl,UAE,FALSE,25.25277778,38,65.2173913,-98.852657,12/04/2020
Foz Do Iguacu,SBFI,BRA,-54.485,FALSE,Cataratas Intl,Brazil,FALSE,-25.60027778,7,,0,12/04/2020
La Rochelle,LFBH,FRA,-1.195277778,TRUE,Ile De Re,France,FALSE,46.17916667,9,,0,12/04/2020
Trabzon,LTCG,TUR,39.78527778,FALSE,Trabzon,Turkey,FALSE,40.99583333,6,,0,12/04/2020
Port Harcourt,DNPO,NGA,6.949530556,FALSE,Port Harcourt,Nigeria,FALSE,5.015458333,3,,0,12/04/2020
Casablanca,GMMN,MAR,-7.581666667,FALSE,Mohammed V Intl,Morocco,FALSE,33.36416667,2,100,-99.68152866,12/04/2020
Abidjan,DIAP,CIV,-3.928655556,FALSE,Felix Houphouet Boigny Intl,Ivory Coast,TRUE,5.254502778,2,100,-98.5915493,12/04/2020
Chengdu,ZUUU,CHN,103.9483333,TRUE,Shuangliu,China,FALSE,30.58,15,-37.5,-95.94594595,12/04/2020
Buffalo,KBUF,USA,-78.73058333,FALSE,Buffalo Niagara Intl,USA,FALSE,42.94041667,2,0,-60,12/04/2020
Hurghada,HEGN,EGY,33.80083333,TRUE,Hurghada Intl,Egypt,FALSE,27.17861111,174,,0,12/04/2020
San Fernando,SADF,ARG,-58.59138889,FALSE,San Fernando Intl,Argentina,FALSE,-34.455,2,,0,12/04/2020
Pavlodar,UASP,KAZ,77.07388889,FALSE,Pavlodar,Kazakhstan,FALSE,52.195,2,,0,12/04/2020
Dayton,KDAY,USA,-84.21941667,FALSE,Cox-Dayton Intl,USA,FALSE,39.90225,1,,0,12/04/2020
Arica,SCAR,CHL,-70.33861111,FALSE,Chacalluta Intl,Chile,FALSE,-18.34861111,1,,0,12/04/2020
Gran Canaria,GCLP,XJE,-15.38666667,TRUE,Gran Canaria,Canary Is,FALSE,27.93194444,11,-56,-97.56637168,12/04/2020
Bydgoszcz,EPBY,POL,17.97777778,TRUE,Szwederowo,Poland,FALSE,53.09666667,27,,0,12/04/2020
Maastricht,EHBK,NLD,5.776944444,FALSE,Maastricht-Aachen,Netherlands,FALSE,50.91583333,5,-16.66666667,-84.375,12/04/2020
Monclova,MMMV,MEX,-101.4710389,FALSE,Monclova Intl,Mexico,FALSE,26.9555,3,,0,12/04/2020
Guayaquil,SEGU,ECU,-79.88388889,FALSE,Jose Joaquin de Olmedo Intl,Ecuador,FALSE,-2.157777778,2,-33.33333333,-98.75,12/04/2020
Managua,MNMG,NIC,-86.16976944,TRUE,Augusto Cesar Sandino Intl,Nicaragua,FALSE,12.14174167,12,-63.63636364,-90.32258065,12/04/2020
Astana,UACC,KAZ,71.46611111,FALSE,Astana,Kazakhstan,FALSE,51.0225,1,0,-99.15254237,12/04/2020
Karlovy Vary,LKKV,CZE,12.915,FALSE,Karlovy Vary,Czech,FALSE,50.20305556,5,,0,12/04/2020
Providence,KPVD,USA,-71.42819444,FALSE,Green State,USA,FALSE,41.724,2,0,-50,12/04/2020
Brazzaville,FCBB,COG,15.2515,FALSE,Maya-Maya,"Congo, Rep Of",FALSE,-4.2505,1,0,-93.33333333,12/04/2020
Nice/Cote D'Azur,LFMN,FRA,7.215,FALSE,Nice/Cote D'Azur,France,FALSE,43.66527778,6,-53.84615385,-99.18256131,12/04/2020
Ontario,KONT,USA,-117.6011944,FALSE,Ontario Intl,USA,FALSE,34.056,5,-44.44444444,-75,12/04/2020
Egal,HCMH,SOM,44.08970833,FALSE,Egal,Somalia,FALSE,9.518088889,3,0,-84.21052632,12/04/2020
St Cloud,KSTC,USA,-94.05988889,FALSE,St Cloud Regl,USA,FALSE,45.54655556,1,,0,12/04/2020
Graz,LOWG,AUT,15.43916667,TRUE,Graz,Austria,FALSE,46.99305556,108,,0,12/04/2020
Greensboro,KGSO,USA,-79.94112222,FALSE,Piedmont Triad Intl,USA,FALSE,36.101325,1,0,-66.66666667,12/04/2020
Belo Horizonte,SBCF,BRA,-43.97194444,FALSE,Tancredo Neves Intl,Brazil,FALSE,-19.62444444,1,0,-94.44444444,12/04/2020
Atyrau,UATG,KAZ,51.82,FALSE,Atyrau,Kazakhstan,FALSE,47.12194444,3,200,-66.66666667,12/04/2020
Khabarovsk,UHHH,RUS,135.1880556,FALSE,Novy,Russia,FALSE,48.52805556,1,0,-94.11764706,12/04/2020
Hohhot,ZBHH,CHN,111.8233333,FALSE,Baita,China,FALSE,40.84833333,2,,0,12/04/2020
Cataratas Del Iguazu,SARI,ARG,-54.47333333,FALSE,Mayor D Carlos Eduardo Krause,Argentina,FALSE,-25.73722222,2,,0,12/04/2020
Tallinn,EETN,EST,24.8325,FALSE,Lennart Meri,Estonia,FALSE,59.41333333,4,-20,-98.83040936,12/04/2020
Accra,DGAA,GHA,-0.167544444,FALSE,Kotoka Intl,Ghana,FALSE,5.604413889,2,-33.33333333,-98.64864865,12/04/2020
Louisville,KSDF,USA,-85.73649722,TRUE,Louisville Intl-Standiford,USA,FALSE,38.17408333,44,-22.80701754,-18.51851852,12/04/2020
Sioux Falls,KFSD,USA,-96.74191111,FALSE,Foss,USA,FALSE,43.58201111,7,-30,-36.36363636,12/04/2020
Maracaibo,SVMC,VEN,-71.72861111,FALSE,La Chinita Intl,Venezuela,FALSE,10.55833333,5,,0,12/04/2020
Al Hoceima,GMTA,MAR,-3.84,FALSE,Cherif El Idrissi Intl,Morocco,FALSE,35.17972222,4,,0,12/04/2020
